id_mutation,date_mutation,numero_disposition,nature_mutation,valeur_fonciere,adresse_numero,adresse_suffixe,adresse_nom_voie,adresse_code_voie,code_postal,code_commune,nom_commune,code_departement,ancien_code_commune,ancien_nom_commune,id_parcelle,ancien_id_parcelle,numero_volume,lot1_numero,lot1_surface_carrez,lot2_numero,lot2_surface_carrez,lot3_numero,lot3_surface_carrez,lot4_numero,lot4_surface_carrez,lot5_numero,lot5_surface_carrez,nombre_lots,code_type_local,type_local,surface_reelle_bati,nombre_pieces_principales,code_nature_culture,nature_culture,code_nature_culture_speciale,nature_culture_speciale,surface_terrain,longitude,latitude
2019-1494197,2019-01-04,000001,Vente,112000,56,,AV EUDOXIE NONGE,0516,97490,97411,Saint-Denis,974,,,97411000BK0335,,,191,72.1,,,,,,,,,1,2,Appartement,72,4,,,,,,55.495226,-20.899
2019-1494197,2019-01-04,000001,Vente,112000,56,,AV EUDOXIE NONGE,0516,97490,97411,Saint-Denis,974,,,97411000BK0335,,,20,,,,,,,,,,1,3,Dépendance,,0,,,,,,55.495226,-20.899
2019-1494197,2019-01-04,000001,Vente,112000,56,,AV EUDOXIE NONGE,0516,97490,97411,Saint-Denis,974,,,97411000BK0335,,,21,,,,,,,,,,1,3,Dépendance,,0,,,,,,55.495226,-20.899
2019-1494198,2019-01-03,000001,Vente,53000,16,,ALL DES PRIMEVERES,1153,97490,97411,Saint-Denis,974,,,97411000HR0033,,,127,,,,,,,,,,1,3,Dépendance,,0,,,,,,55.487724,-20.910966
2019-1494198,2019-01-03,000001,Vente,53000,16,,ALL DES PRIMEVERES,1153,97490,97411,Saint-Denis,974,,,97411000HR0033,,,72,38.12,,,,,,,,,1,2,Appartement,38,2,,,,,,55.487724,-20.910966
2019-1494199,2019-01-04,000001,Vente,155000,,,LE GRAND COIN,B130,97419,97408,La Possession,974,,,97408000AY0360,,,,,,,,,,,,,0,,,,,AB,terrains a bâtir,,,79,55.393337,-20.983273
2019-1494199,2019-01-04,000001,Vente,155000,47,,RUE DE LA PETITE SOURCE,0303,97419,97408,La Possession,974,,,97408000AY0367,,,,,,,,,,,,,0,1,Maison,107,3,AB,terrains a bâtir,,,521,55.393102,-20.983193
2019-1494200,2019-01-07,000002,Vente,155000,1,,CHE DES PECHERS,1094,97490,97411,Saint-Denis,974,,,97411000HI0597,,,,,,,,,,,,,0,1,Maison,64,4,S,sols,,,750,,
2019-1494200,2019-01-07,000002,Vente,155000,1,,CHE DES PECHERS,1094,97490,97411,Saint-Denis,974,,,97411000HI0597,,,,,,,,,,,,,0,1,Maison,95,4,S,sols,,,750,,
2019-1494201,2019-01-07,000001,Vente,310000,7,,PARC D ACTIVITE DE LA MARE,A124,97438,97418,Sainte-Marie,974,,,97418000AC1460,,,59,,,,,,,,,,1,4,Local industriel. commercial ou assimilé,15,0,,,,,,55.530375,-20.899945
2019-1494201,2019-01-07,000001,Vente,310000,9,,PARC D ACTIVITE DE LA MARE,A124,97438,97418,Sainte-Marie,974,,,97418000AC1460,,,11,208.65,,,,,,,,,1,4,Local industriel. commercial ou assimilé,210,0,,,,,,55.530375,-20.899945
2019-1494201,2019-01-07,000001,Vente,310000,7,,PARC D ACTIVITE DE LA MARE,A124,97438,97418,Sainte-Marie,974,,,97418000AC1460,,,58,,,,,,,,,,1,4,Local industriel. commercial ou assimilé,15,0,,,,,,55.530375,-20.899945
2019-1494202,2019-01-11,000001,Vente,33000,118,,CHE DE BOIS ROUGE,0197,97490,97411,Saint-Denis,974,,,97411000ID0002,,,1265,24.06,,,,,,,,,1,2,Appartement,24,1,,,,,,55.486633,-20.923917
2019-1494202,2019-01-11,000001,Vente,33000,118,,CHE DE BOIS ROUGE,0197,97490,97411,Saint-Denis,974,,,97411000ID0002,,,1011,,,,,,,,,,1,3,Dépendance,,0,,,,,,55.486633,-20.923917
2019-1494203,2019-01-11,000001,Vente,159500,18,C,ALL DES CORINDONS,0366,97400,97411,Saint-Denis,974,,,97411000EN0061,,,189,,,,,,,,,,1,2,Appartement,73,4,,,,,,55.444988,-20.902814
2019-1494203,2019-01-11,000001,Vente,159500,18,C,ALL DES CORINDONS,0366,97400,97411,Saint-Denis,974,,,97411000EN0061,,,77,,,,,,,,,,1,3,Dépendance,,0,,,,,,55.444988,-20.902814
2019-1494203,2019-01-11,000001,Vente,159500,18,C,ALL DES CORINDONS,0366,97400,97411,Saint-Denis,974,,,97411000EN0061,,,78,,,,,,,,,,1,3,Dépendance,,0,,,,,,55.444988,-20.902814
2019-1494204,2019-01-08,000001,Vente,450230,6,,RUE DES BAIES ROSES,0052,97419,97408,La Possession,974,,,97408000BK0035,,,,,,,,,,,,,0,1,Maison,115,4,S,sols,,,469,55.347106,-20.927961
2019-1494204,2019-01-08,000001,Vente,450230,8,,RUE DES BAIES ROSES,0052,97419,97408,La Possession,974,,,97408000BK0036,,,,,,,,,,,,,0,,,,,S,sols,,,553,55.347142,-20.927826
2019-1494205,2019-01-10,000001,Vente,316000,23,,IMP LUCIE DE SIGOYER,1873,97460,97415,Saint-Paul,974,,,97415000EY1771,,,,,,,,,,,,,0,1,Maison,83,4,AB,terrains a bâtir,,,346,55.264098,-21.018173
2019-1494206,2019-01-08,000002,Vente,92500,10,,LOT LES CANNES,A390,97470,97410,Saint-Benoît,974,,,97410000AC0651,,,,,,,,,,,,,0,1,Maison,94,4,S,sols,,,591,55.689967,-21.011889
2019-1494207,2019-01-16,000001,Vente,71500,113,T,CHE LORY LEBRETON    LA BRETAG,0784,97490,97411,Saint-Denis,974,,,97411000IZ0145,,,17,50.53,,,,,,,,,1,2,Appartement,45,1,,,,,,55.497555,-20.924958
2019-1494207,2019-01-16,000001,Vente,71500,113,T,CHE LORY LEBRETON    LA BRETAG,0784,97490,97411,Saint-Denis,974,,,97411000IZ0145,,,36,,,,,,,,,,1,3,Dépendance,,0,,,,,,55.497555,-20.924958
2019-1494208,2019-01-02,000001,Vente,800000,36,,RUE GEORGES POMPIDOU,0684,97470,97410,Saint-Benoît,974,,,97410000AK0089,,,,,,,,,,,,,0,4,Local industriel. commercial ou assimilé,712,0,S,sols,,,1090,55.712172,-21.032296
2019-1494208,2019-01-02,000001,Vente,800000,36,,RUE GEORGES POMPIDOU,0684,97470,97410,Saint-Benoît,974,,,97410000AK0089,,,,,,,,,,,,,0,2,Appartement,163,1,S,sols,,,1090,55.712172,-21.032296
2019-1494208,2019-01-02,000001,Vente,800000,36,,RUE GEORGES POMPIDOU,0684,97470,97410,Saint-Benoît,974,,,97410000AK0089,,,,,,,,,,,,,0,4,Local industriel. commercial ou assimilé,673,0,S,sols,,,1090,55.712172,-21.032296
2019-1494209,2019-01-16,000001,Vente,33500,6,,IMP DES MANGOUSTANS,0817,97490,97411,Saint-Denis,974,,,97411000BD0138,,,1,29.22,,,,,,,,,1,2,Appartement,29,1,,,,,,55.479668,-20.893489
2019-1494209,2019-01-16,000001,Vente,33500,6,,IMP DES MANGOUSTANS,0817,97490,97411,Saint-Denis,974,,,97411000BD0138,,,13,,,,,,,,,,1,3,Dépendance,,0,,,,,,55.479668,-20.893489
2019-1494210,2019-01-18,000001,Vente,63000,6,B,RUE RAYMOND MONDON,0328,97419,97408,La Possession,974,,,97408000BL0323,,,37,,,,,,,,,,1,3,Dépendance,,0,,,,,,55.339284,-20.924919
2019-1494210,2019-01-18,000001,Vente,63000,6,B,RUE RAYMOND MONDON,0328,97419,97408,La Possession,974,,,97408000BL0323,,,16,32.89,,,,,,,,,1,2,Appartement,45,2,,,,,,55.339284,-20.924919
2019-1494211,2019-01-03,000002,Vente,750000,41,,RUE GABRIEL DE KERVEGUEN,0554,97490,97411,Saint-Denis,974,,,97411000BL0477,,,,,,,,,,,,,0,4,Local industriel. commercial ou assimilé,499,0,S,sols,,,2814,55.495416,-20.887159
2019-1494211,2019-01-03,000002,Vente,750000,41,,RUE GABRIEL DE KERVEGUEN,0554,97490,97411,Saint-Denis,974,,,97411000BL0477,,,,,,,,,,,,,0,4,Local industriel. commercial ou assimilé,,,S,sols,,,2814,55.495416,-20.887159
2019-1494211,2019-01-03,000002,Vente,750000,41,,RUE GABRIEL DE KERVEGUEN,0554,97490,97411,Saint-Denis,974,,,97411000BL0477,,,,,,,,,,,,,0,4,Local industriel. commercial ou assimilé,,0,S,sols,,,2814,55.495416,-20.887159
2019-1494212,2019-01-07,000001,Vente,140000,17,,CHE JONCTION   (TAMATAVE),0779,97435,97415,Saint-Paul,974,,,97415000CS0174,,,,,,,,,,,,,0,1,Maison,51,3,S,sols,,,357,55.265795,-21.049286
2019-1494213,2019-01-09,000001,Vente,119000,22,,RUE MARIE ESPARON,0519,97438,97418,Sainte-Marie,974,,,97418000AS1110,,,,,,,,,,,,,0,1,Maison,84,3,S,sols,,,309,55.531028,-20.921241
2019-1494214,2019-01-09,000001,Vente,331190,8,B,RUE DU MOULIN A VENT,0980,97400,97411,Saint-Denis,974,,,97411000AD0080,,,46,,,,,,,,,,1,3,Dépendance,,0,,,,,,55.451254,-20.87447
2019-1494214,2019-01-09,000001,Vente,331190,8,B,RUE DU MOULIN A VENT,0980,97400,97411,Saint-Denis,974,,,97411000AD0080,,,26,,,,,,,,,,1,3,Dépendance,,0,,,,,,55.451254,-20.87447
2019-1494214,2019-01-09,000001,Vente,331190,8,B,RUE DU MOULIN A VENT,0980,97400,97411,Saint-Denis,974,,,97411000AD0080,,,25,,,,,,,,,,1,3,Dépendance,,0,,,,,,55.451254,-20.87447
2019-1494214,2019-01-09,000001,Vente,331190,8,B,RUE DU MOULIN A VENT,0980,97400,97411,Saint-Denis,974,,,97411000AD0080,,,87,103.26,,,,,,,,,1,2,Appartement,98,4,,,,,,55.451254,-20.87447
2019-1494215,2019-01-04,000001,Vente,280000,8,C,LOT LES TERRASSES SUR LE PORT,A152,97419,97408,La Possession,974,,,97408000AV1159,,,,,,,,,,,,,0,1,Maison,95,4,S,sols,,,417,55.345014,-20.964572
2019-1494216,2019-01-17,000001,Vente,38000,75,,CHE DE LA SOURCE        MOUFIA,1355,97490,97411,Saint-Denis,974,,,97411000HP0010,,,21,,,,,,,,,,1,3,Dépendance,,0,,,,,,55.485744,-20.91669
2019-1494216,2019-01-17,000001,Vente,38000,75,,CHE DE LA SOURCE        MOUFIA,1355,97490,97411,Saint-Denis,974,,,97411000HP0010,,,3,26.44,,,,,,,,,1,2,Appartement,28,1,,,,,,55.485744,-20.91669
2019-1494217,2019-01-18,000001,Vente,500,5013,T,CD DE ST ANDRE A HELL,0120,97433,97421,Salazie,974,,,97421000BD0408,,,,,,,,,,,,,0,,,,,T,terres,,,52,55.523076,-21.061803
2019-1494218,2019-01-21,000001,Vente,45000,193,,AV MARCEL HOARAU,0847,97490,97411,Saint-Denis,974,,,97411000HP0064,,,2,37.58,,,,,,,,,1,2,Appartement,38,2,,,,,,55.484524,-20.91284
2019-1494218,2019-01-21,000001,Vente,45000,193,,AV MARCEL HOARAU,0847,97490,97411,Saint-Denis,974,,,97411000HP0064,,,102,,,,,,,,,,1,3,Dépendance,,0,,,,,,55.484524,-20.91284
2019-1494219,2019-01-18,000001,Vente,190000,4,,RUE DES GIROFLIERS,0213,97412,97402,Bras-Panon,974,,,97402000AI0440,,,,,,,,,,,,,0,1,Maison,75,5,S,sols,,,452,55.685351,-21.004081
2019-1494220,2019-01-18,000001,Vente,44000,4,,ROC DE L OASIS,1194,97400,97411,Saint-Denis,974,,,97411000HB0281,,,16,,,,,,,,,,1,3,Dépendance,,0,,,,,,55.467189,-20.898318
2019-1494220,2019-01-18,000001,Vente,44000,4,,ROC DE L OASIS,1194,97400,97411,Saint-Denis,974,,,97411000HB0281,,,126,26.97,,,,,,,,,1,2,Appartement,26,1,,,,,,55.467189,-20.898318
2019-1494221,2019-01-17,000001,Vente,123000,18,C,ALL DES CORINDONS,0366,97400,97411,Saint-Denis,974,,,97411000EN0061,,,212,61.42,,,,,,,,,1,2,Appartement,60,3,,,,,,55.444988,-20.902814
2019-1494221,2019-01-17,000001,Vente,123000,18,C,ALL DES CORINDONS,0366,97400,97411,Saint-Denis,974,,,97411000EN0061,,,102,,,,,,,,,,1,3,Dépendance,,0,,,,,,55.444988,-20.902814
2019-1494222,2019-01-22,000001,Vente,162000,35,,CHE DES PAPAYES,1059,97490,97411,Saint-Denis,974,,,97411000KC0100,,,43,,,,,,,,,,1,3,Dépendance,,0,,,,,,55.476702,-20.918871
2019-1494222,2019-01-22,000001,Vente,162000,35,,CHE DES PAPAYES,1059,97490,97411,Saint-Denis,974,,,97411000KC0100,,,58,,,,,,,,,,1,3,Dépendance,,0,,,,,,55.476702,-20.918871
2019-1494222,2019-01-22,000001,Vente,162000,35,,CHE DES PAPAYES,1059,97490,97411,Saint-Denis,974,,,97411000KC0100,,,73,50.48,74,38.37,,,,,,,2,2,Appartement,88,5,,,,,,55.476702,-20.918871
2019-1494223,2019-01-23,000001,Vente,110000,21,B,RUE DE LA DIGUE,0428,97400,97411,Saint-Denis,974,,,97411000AK0010,,,47,42.16,,,,,,,,,1,2,Appartement,44,2,,,,,,55.444058,-20.887574
2019-1494223,2019-01-23,000001,Vente,110000,21,,RUE DE LA DIGUE,0428,97400,97411,Saint-Denis,974,,,97411000AK0010,,,101,,,,,,,,,,1,3,Dépendance,,0,,,,,,55.444058,-20.887574
2019-1494224,2019-01-23,000001,Vente,79000,55,,CHE COMMINS,0359,97417,97411,Saint-Denis,974,,,97411000EL0460,,,211,12.43,,,,,,,,,1,3,Dépendance,,0,,,,,,55.407749,-20.890099
2019-1494224,2019-01-23,000001,Vente,79000,55,,CHE COMMINS,0359,97417,97411,Saint-Denis,974,,,97411000EL0460,,,89,35.08,,,,,,,,,1,2,Appartement,35,2,,,,,,55.407749,-20.890099
2019-1494225,2019-01-23,000001,Vente,208000,3,,RUE FLEUR DE JADE,0451,97438,97418,Sainte-Marie,974,,,97418000AS0839,,,34,,,,,,,,,,1,3,Dépendance,,0,,,,,,55.529786,-20.917632
2019-1494225,2019-01-23,000001,Vente,208000,3,,RUE FLEUR DE JADE,0451,97438,97418,Sainte-Marie,974,,,97418000AS0839,,,35,,,,,,,,,,1,3,Dépendance,,0,,,,,,55.529786,-20.917632
2019-1494225,2019-01-23,000001,Vente,208000,3,,RUE FLEUR DE JADE,0451,97438,97418,Sainte-Marie,974,,,97418000AS0839,,,19,95.28,,,,,,,,,1,2,Appartement,96,4,,,,,,55.529786,-20.917632
2019-1494226,2019-01-23,000001,Vente,349000,1,,IMP DES CYCAS,0375,97434,97415,Saint-Paul,974,,,97415000EW1518,,,97,,,,,,,,,,1,3,Dépendance,,0,,,,,,55.239574,-21.090997
2019-1494226,2019-01-23,000001,Vente,349000,1,,IMP DES CYCAS,0375,97434,97415,Saint-Paul,974,,,97415000EW1518,,,98,,,,,,,,,,1,3,Dépendance,,0,,,,,,55.239574,-21.090997
2019-1494226,2019-01-23,000001,Vente,349000,1,,IMP DES CYCAS,0375,97434,97415,Saint-Paul,974,,,97415000EW1518,,,35,68.74,,,,,,,,,1,1,Maison,69,3,,,,,,55.239574,-21.090997
2019-1494227,2019-01-03,000001,Vente,42000,15,,SEN DU RUISSEAU,1229,97490,97411,Saint-Denis,974,,,97411000BH0371,,,36,22.77,,,,,,,,,1,2,Appartement,23,1,,,,,,55.477813,-20.900928
2019-1494227,2019-01-03,000001,Vente,42000,15,,SEN DU RUISSEAU,1229,97490,97411,Saint-Denis,974,,,97411000BH0371,,,101,,,,,,,,,,1,3,Dépendance,,0,,,,,,55.477813,-20.900928
2019-1494228,2019-01-05,000001,Vente,83000,3,,RUE EUGENE  DESCAMPS,0457,97490,97411,Saint-Denis,974,,,97411000BH0671,,,21,44.47,,,,,,,,,1,2,Appartement,44,2,,,,,,55.480957,-20.901135
2019-1494229,2019-01-03,000001,Vente,512197,1,,RLE MACEDOINE,0804,97400,97411,Saint-Denis,974,,,97411000AS0071,,,,,,,,,,,,,0,1,Maison,130,5,S,sols,,,248,55.455994,-20.887773
2019-1494230,2019-01-24,000001,Vente,66000,781,,AV DE BOURBON,0310,97440,97409,Saint-André,974,,,97409000BI0232,,,59,73.01,,,,,,,,,1,2,Appartement,74,4,,,,,,55.648524,-20.967651
2019-1494230,2019-01-24,000001,Vente,66000,781,,AV DE BOURBON,0310,97440,97409,Saint-André,974,,,97409000BI0232,,,13,,,,,,,,,,1,3,Dépendance,,0,,,,,,55.648524,-20.967651
2019-1494230,2019-01-24,000001,Vente,66000,781,,AV DE BOURBON,0310,97440,97409,Saint-André,974,,,97409000BI0232,,,14,,,,,,,,,,1,3,Dépendance,,0,,,,,,55.648524,-20.967651
2019-1494231,2019-01-24,000001,Vente,32000,8,,RUE YVES MONTAND,0178,97438,97418,Sainte-Marie,974,,,97418000BM0398,,,58,,,,,,,,,,1,3,Dépendance,,0,,,,,,55.555574,-20.898453
2019-1494231,2019-01-24,000001,Vente,32000,10,,RUE YVES MONTAND,0178,97438,97418,Sainte-Marie,974,,,97418000BM0398,,,18,22.86,,,,,,,,,1,2,Appartement,22,1,,,,,,55.555574,-20.898453
2019-1494232,2019-01-03,000001,Vente en l'état futur d'achèvement,178400,63,B,RUE DE LA CAVERNE  (ST PAUL),0280,97460,97415,Saint-Paul,974,,,97415000BP0468,,,9,,,,,,,,,,1,2,Appartement,42,2,,,,,,55.267789,-21.013076
2019-1494232,2019-01-03,000001,Vente en l'état futur d'achèvement,178400,63,B,RUE DE LA CAVERNE  (ST PAUL),0280,97460,97415,Saint-Paul,974,,,97415000BP0468,,,28,,,,,,,,,,1,3,Dépendance,,0,,,,,,55.267789,-21.013076
2019-1494233,2019-01-04,000001,Vente,247000,8,,CHE DE LA CHAPELLE (BERNICA),0318,97435,97415,Saint-Paul,974,,,97415000CP0421,,,48,,,,,,,,,,1,3,Dépendance,,0,,,,,,55.282709,-21.045063
2019-1494233,2019-01-04,000001,Vente,247000,8,,CHE DE LA CHAPELLE (BERNICA),0318,97435,97415,Saint-Paul,974,,,97415000CP0421,,,65,,,,,,,,,,1,3,Dépendance,,0,,,,,,55.282709,-21.045063
2019-1494233,2019-01-04,000001,Vente,247000,8,,CHE DE LA CHAPELLE (BERNICA),0318,97435,97415,Saint-Paul,974,,,97415000CP0421,,,17,98.27,,,,,,,,,1,2,Appartement,88,4,,,,,,55.282709,-21.045063
2019-1494234,2019-01-02,000001,Vente,349248,37,,RUE DE L'AEROPOSTALE,0089,97411,97415,Saint-Paul,974,,,97415000AY0983,,,,,,,,,,,,,0,1,Maison,105,4,S,sols,,,468,55.329034,-20.991388
2019-1494235,2019-01-04,000001,Vente,385000,26,,RUE OMEGA,1854,97460,97415,Saint-Paul,974,,,97415000BI0543,,,,,,,,,,,,,0,1,Maison,83,4,S,sols,,,468,55.284083,-20.984381
2019-1494236,2019-01-11,000001,Vente,226750,16,,IMP DU GRAND HOTEL,0716,97434,97415,Saint-Paul,974,,,97415000CX0696,,,18,61.01,,,,,,,,,1,2,Appartement,61,3,,,,,,55.23006,-21.031197
2019-1494236,2019-01-11,000001,Vente,226750,16,,IMP DU GRAND HOTEL,0716,97434,97415,Saint-Paul,974,,,97415000CX0696,,,51,,,,,,,,,,1,3,Dépendance,,0,,,,,,55.23006,-21.031197
2019-1494236,2019-01-11,000001,Vente,226750,16,,IMP DU GRAND HOTEL,0716,97434,97415,Saint-Paul,974,,,97415000CX0696,,,49,,,,,,,,,,1,3,Dépendance,,0,,,,,,55.23006,-21.031197
2019-1494237,2019-01-11,000001,Vente,140000,50,,RUE THEO MARIANNE,0490,97431,97406,La Plaine-des-Palmistes,974,,,97406000AL0588,,,,,,,,,,,,,0,1,Maison,60,2,S,sols,,,196,55.621281,-21.144893
2019-1494237,2019-01-11,000001,Vente,140000,21,,RUE GEORGES LEBEAU,0240,97431,97406,La Plaine-des-Palmistes,974,,,97406000AL0589,,,,,,,,,,,,,0,,,,,PA,pâtures,,,336,55.621242,-21.144983
2019-1494238,2019-01-10,000001,Vente,168000,17,,IMP DES CORBEILLES D'OR,0075,97441,97420,Sainte-Suzanne,974,,,97420000AZ0781,,,6,89.36,,,,,,,,,1,1,Maison,86,4,,,,,,55.636656,-20.938638
2019-1494238,2019-01-10,000001,Vente,168000,17,,IMP DES CORBEILLES D'OR,0075,97441,97420,Sainte-Suzanne,974,,,97420000AZ0781,,,11,,,,,,,,,,1,3,Dépendance,,0,,,,,,55.636656,-20.938638
2019-1494238,2019-01-10,000001,Vente,168000,17,,IMP DES CORBEILLES D'OR,0075,97441,97420,Sainte-Suzanne,974,,,97420000AZ0781,,,10,,,,,,,,,,1,3,Dépendance,,0,,,,,,55.636656,-20.938638
2019-1494239,2019-01-10,000001,Vente,130000,28,,RUE DE LA BOURGOGNE,0226,97490,97411,Saint-Denis,974,,,97411000HM0025,,,143,80.28,,,,,,,,,1,2,Appartement,101,4,,,,,,55.486029,-20.907274
2019-1494240,2019-01-07,000001,Vente,68185,142,,RUE JEAN XXIII,0246,97438,97418,Sainte-Marie,974,,,97418000AO0917,,,,,,,,,,,,,0,1,Maison,50,4,S,sols,,,466,55.517559,-20.948404
2019-1494240,2019-01-07,000001,Vente,68185,5500,,CR N 9,0318,97438,97418,Sainte-Marie,974,,,97418000AO0918,,,,,,,,,,,,,0,,,,,AB,terrains a bâtir,,,583,55.517403,-20.948629
2019-1494241,2019-01-07,000001,Vente,730000,14,,RUE DU GRAND LARGE,0713,97434,97415,Saint-Paul,974,,,97415000CZ0524,,,,,,,,,,,,,0,1,Maison,150,5,S,sols,,,744,55.224064,-21.048767
2019-1494242,2019-01-07,000001,Vente,300000,23,,CHE COTON,0413,97460,97415,Saint-Paul,974,,,97415000EY1474,,,,,,,,,,,,,0,1,Maison,129,5,S,sols,,,455,55.262775,-21.028938
2019-1494243,2019-01-25,000001,Vente,65000,18,,AV STANISLAS GIMART,1367,97490,97411,Saint-Denis,974,,,97411000AW0207,,,74,39.41,,,,,,,,,1,2,Appartement,38,2,,,,,,55.475113,-20.893167
2019-1494243,2019-01-25,000001,Vente,65000,18,,AV STANISLAS GIMART,1367,97490,97411,Saint-Denis,974,,,97411000AW0207,,,205,,,,,,,,,,1,3,Dépendance,,0,,,,,,55.475113,-20.893167
2019-1494244,2019-01-07,000001,Vente,350000,53,,CHE BOTTARD,0199,97434,97415,Saint-Paul,974,,,97415000HM0187,,,29,,,,,,,,,,1,3,Dépendance,,0,,,,,,55.231328,-21.051032
2019-1494244,2019-01-07,000001,Vente,350000,53,,CHE BOTTARD,0199,97434,97415,Saint-Paul,974,,,97415000HM0187,,,28,,,,,,,,,,1,3,Dépendance,,0,,,,,,55.231328,-21.051032
2019-1494244,2019-01-07,000001,Vente,350000,53,,CHE BOTTARD,0199,97434,97415,Saint-Paul,974,,,97415000HM0187,,,8,75.74,,,,,,,,,1,2,Appartement,86,3,,,,,,55.231328,-21.051032
2019-1494245,2019-01-09,000001,Vente,180000,14,,RUE MARCADET,0975,97460,97415,Saint-Paul,974,,,97415000EX0099,,,,,,,,,,,,,0,1,Maison,75,3,S,sols,,,400,55.287392,-20.983529
2019-1494246,2019-01-08,000001,Vente,5500,,,ZAC ST GILLES,B903,97434,97415,Saint-Paul,974,,,97415000DH0170,,,71,,,,,,,,,,1,3,Dépendance,,0,,,,,,55.221795,-21.073741
2019-1494247,2019-01-08,000001,Vente,52650,48,,RUE MONTHYON,0960,97400,97411,Saint-Denis,974,,,97411000AS0049,,,58,43.53,,,,,,,,,1,2,Appartement,43,2,,,,,,55.455513,-20.887624
2019-1494247,2019-01-08,000001,Vente,52650,48,,RUE MONTHYON,0960,97400,97411,Saint-Denis,974,,,97411000AS0049,,,100,,,,,,,,,,1,3,Dépendance,,0,,,,,,55.455513,-20.887624
2019-1494248,2019-01-08,000001,Vente,69550,48,,RUE MONTHYON,0960,97400,97411,Saint-Denis,974,,,97411000AS0049,,,72,56.74,,,,,,,,,1,2,Appartement,61,3,,,,,,55.455513,-20.887624
2019-1494248,2019-01-08,000001,Vente,69550,48,,RUE MONTHYON,0960,97400,97411,Saint-Denis,974,,,97411000AS0049,,,6,,,,,,,,,,1,3,Dépendance,,0,,,,,,55.455513,-20.887624
2019-1494249,2019-01-11,000001,Vente,197000,5,,IMP DES CHAGOS,0091,97419,97408,La Possession,974,,,97408000AP0813,,,17,79.81,,,,,,,,,1,2,Appartement,79,4,,,,,,55.330724,-20.961732
2019-1494249,2019-01-11,000001,Vente,197000,5,,IMP DES CHAGOS,0091,97419,97408,La Possession,974,,,97408000AP0813,,,28,,,,,,,,,,1,3,Dépendance,,0,,,,,,55.330724,-20.961732
2019-1494249,2019-01-11,000001,Vente,197000,2,,IMP PARKION,0278,97419,97408,La Possession,974,,,97408000AP0827,,,25,,,,,,,,,,1,3,Dépendance,,0,,,,,,55.331714,-20.960549
2019-1494250,2019-01-23,000001,Vente,440000,7,,AV DES MURIERS,0055,97438,97418,Sainte-Marie,974,,,97418000AT0688,,,,,,,,,,,,,0,1,Maison,160,7,S,sols,,,600,55.543557,-20.90011
2019-1494250,2019-01-23,000001,Vente,440000,27,,AV DES JACQUIERS,0007,97438,97418,Sainte-Marie,974,,,97418000AT1401,,,,,,,,,,,,,0,,,,,S,sols,,,50,55.543539,-20.900244
2019-1494250,2019-01-23,000001,Vente,440000,27,,AV DES JACQUIERS,0007,97438,97418,Sainte-Marie,974,,,97418000AT2001,,,,,,,,,,,,,0,,,,,S,sols,,,49,55.5434,-20.900121
2019-1494251,2019-01-02,000001,Vente,189000,10,,CHE DU TOUR DES ROCHES,1440,97460,97415,Saint-Paul,974,,,97415000BV0034,,,2,64.95,,,,,,,,,1,2,Appartement,65,3,,,,,,55.27696,-21.012127
2019-1494251,2019-01-02,000001,Vente,189000,10,,CHE DU TOUR DES ROCHES,1440,97460,97415,Saint-Paul,974,,,97415000BV0034,,,13,,,,,,,,,,1,3,Dépendance,,0,,,,,,55.27696,-21.012127
2019-1494251,2019-01-02,000001,Vente,189000,10,,CHE DU TOUR DES ROCHES,1440,97460,97415,Saint-Paul,974,,,97415000BV0034,,,12,,,,,,,,,,1,3,Dépendance,,0,,,,,,55.27696,-21.012127
2019-1494252,2019-01-02,000001,Vente,165000,32,,RUE MAZAGRAN,0870,97400,97411,Saint-Denis,974,,,97411000AS0596,,,23,78.47,,,,,,,,,1,2,Appartement,80,4,,,,,,55.454891,-20.888801
2019-1494252,2019-01-02,000001,Vente,165000,32,,RUE MAZAGRAN,0870,97400,97411,Saint-Denis,974,,,97411000AS0596,,,35,,,,,,,,,,1,3,Dépendance,,0,,,,,,55.454891,-20.888801
2019-1494252,2019-01-02,000001,Vente,165000,32,,RUE MAZAGRAN,0870,97400,97411,Saint-Denis,974,,,97411000AS0596,,,36,,,,,,,,,,1,3,Dépendance,,0,,,,,,55.454891,-20.888801
2019-1494253,2019-01-28,000001,Vente,300000,25,,CHE DE LA RAMPE DES CHICOTS,0160,97437,97410,Saint-Benoît,974,,,97410000BZ0082,,,,,,,,,,,,,0,1,Maison,147,6,S,sols,,,940,55.749237,-21.113037
2019-1494254,2019-01-11,000001,Vente,180000,131,,CHE DES PRETRES,1570,97440,97409,Saint-André,974,,,97409000AP0820,,,,,,,,,,,,,0,1,Maison,98,6,S,sols,,,700,55.660789,-20.966543
2019-1494255,2019-01-29,000001,Vente,80000,3132,,CHE LAGOURGUE,1000,97440,97409,Saint-André,974,,,97409000AS1381,,,20,40.16,,,,,,,,,1,2,Appartement,40,2,,,,,,55.673381,-20.939856
2019-1494255,2019-01-29,000001,Vente,80000,343,,CHE DE L ECOLE,0680,97440,97409,Saint-André,974,,,97409000AS1381,,,84,,,,,,,,,,1,3,Dépendance,,0,,,,,,55.673381,-20.939856
2019-1494256,2019-01-29,000001,Vente,39000,66,,BD SAINT FRANCOIS,1261,97400,97411,Saint-Denis,974,,,97411000ES0054,,,806,,,,,,,,,,1,3,Dépendance,,0,,,,,,55.461449,-20.899575
2019-1494256,2019-01-29,000001,Vente,39000,66,,BD SAINT FRANCOIS,1261,97400,97411,Saint-Denis,974,,,97411000ES0054,,,316,25.38,,,,,,,,,1,2,Appartement,25,1,,,,,,55.461449,-20.899575
2019-1494257,2019-01-11,000001,Vente,185000,26,,RUE EMILE GRIMAUD,0486,97490,97411,Saint-Denis,974,,,97411000BE0759,,,,,,,,,,,,,0,1,Maison,60,3,S,sols,,,408,55.482503,-20.889803
2019-1494258,2019-01-11,000001,Vente,41000,4,A,RUE DES FOUCHEROLLES,0545,97490,97411,Saint-Denis,974,,,97411000HV0135,,,149,23.99,,,,,,,,,1,2,Appartement,23,1,,,,,,55.492201,-20.899512
2019-1494258,2019-01-11,000001,Vente,41000,2,,RUE DES FOUCHEROLLES,0545,97490,97411,Saint-Denis,974,,,97411000HV0135,,,99,,,,,,,,,,1,3,Dépendance,,0,,,,,,55.492201,-20.899512
2019-1494259,2019-01-04,000001,Vente,120400,9007,,RLE PIERRE RENAUDEL,1045,97420,97407,Le Port,974,,,97407000AY0482,,,,,,,,,,,,,0,,,,,AB,terrains a bâtir,,,301,55.316551,-20.955541
2019-1494260,2019-01-07,000001,Vente,110000,18,C,ALL DES CORINDONS,0366,97400,97411,Saint-Denis,974,,,97411000EN0061,,,29,,,,,,,,,,1,3,Dépendance,,0,,,,,,55.444988,-20.902814
2019-1494260,2019-01-07,000001,Vente,110000,18,C,ALL DES CORINDONS,0366,97400,97411,Saint-Denis,974,,,97411000EN0061,,,150,46.26,,,,,,,,,1,2,Appartement,47,3,,,,,,55.444988,-20.902814
2019-1494261,2019-01-15,000001,Vente,118000,11,,CHE DE BRAS PANON,0060,97412,97402,Bras-Panon,974,,,97402000AK2115,,,,,,,,,,,,,0,,,,,AB,terrains a bâtir,,,502,55.689503,-21.004228
2019-1494262,2019-01-10,000002,Vente,116698,65,,RUE DES LIMITES,0371,97412,97402,Bras-Panon,974,,,97402000AH1889,,,,,,,,,,,,,0,1,Maison,86,6,S,sols,,,393,55.676908,-20.998326
2019-1494263,2019-01-09,000001,Vente,138090,9,,CHE FINETTE,0535,97490,97411,Saint-Denis,974,,,97411000HC0296,,,23,69.66,,,,,,,,,1,2,Appartement,70,3,,,,,,55.475165,-20.900385
2019-1494263,2019-01-09,000001,Vente,138090,9,,CHE FINETTE,0535,97490,97411,Saint-Denis,974,,,97411000HC0296,,,71,,,,,,,,,,1,3,Dépendance,,0,,,,,,55.475165,-20.900385
2019-1494264,2019-01-17,000001,Vente,54500,45,,AV LECONTE DE LISLE,0756,97490,97411,Saint-Denis,974,,,97411000BE0460,,,93,,,,,,,,,,1,3,Dépendance,,0,,,,,,55.484059,-20.892319
2019-1494264,2019-01-17,000001,Vente,54500,45,,AV LECONTE DE LISLE,0756,97490,97411,Saint-Denis,974,,,97411000BE0460,,,1132,23.98,,,,,,,,,1,2,Appartement,24,1,,,,,,55.484059,-20.892319
2019-1494265,2019-01-22,000001,Vente,100000,503,,RUE DE LA REPUBLIQUE,0430,97431,97406,La Plaine-des-Palmistes,974,,,97406000AV0841,,,,,,,,,,,,,0,1,Maison,93,7,S,sols,,,604,55.618498,-21.145681
2019-1494266,2019-01-10,000001,Vente,5000,1,,IMP YLANG YLANG,1658,97460,97415,Saint-Paul,974,,,97415000AD0236,,,57,,,,,,,,,,1,3,Dépendance,,0,,,,,,55.303863,-20.974227
2019-1494267,2019-01-31,000001,Vente,295000,73,,CHE DES NIAOULIS,0547,97400,97411,Saint-Denis,974,,,97411000CR0083,,,,,,,,,,,,,0,1,Maison,80,5,S,sols,,,1034,55.460416,-20.923053
2019-1494268,2019-01-14,000001,Vente,193000,353,,CD 41,0100,97419,97408,La Possession,974,,,97408000AB0220,,,,,,,,,,,,,0,1,Maison,120,4,S,sols,,,950,55.37486,-20.92508
2019-1494269,2019-01-14,000001,Vente,8680,282,,CHE GRAND FOND,0120,97470,97410,Saint-Benoît,974,,,97410000AX0930,,,,,,,,,,,,,0,1,Maison,40,3,S,sols,,,821,55.66583,-21.037004
2019-1494270,2019-01-15,000001,Vente,300000,113,,RUE JULES AUBER,0680,97400,97411,Saint-Denis,974,,,97411000AE0501,,,32,,,,,,,,,,1,3,Dépendance,,0,,,,,,55.453479,-20.879704
2019-1494270,2019-01-15,000001,Vente,300000,113,,RUE JULES AUBER,0680,97400,97411,Saint-Denis,974,,,97411000AE0501,,,104,88.8,,,,,,,,,1,2,Appartement,88,4,,,,,,55.453479,-20.879704
2019-1494270,2019-01-15,000001,Vente,300000,113,,RUE JULES AUBER,0680,97400,97411,Saint-Denis,974,,,97411000AE0501,,,48,,,,,,,,,,1,3,Dépendance,,0,,,,,,55.453479,-20.879704
2019-1494271,2019-01-08,000001,Vente en l'état futur d'achèvement,98732,2,,IMP DU BOIS DE ROSE,0209,97490,97411,Saint-Denis,974,,,97411000BH0159,,,93,,,,,,,,,,1,3,Dépendance,,0,,,,,,55.481074,-20.899424
2019-1494271,2019-01-08,000001,Vente en l'état futur d'achèvement,98732,2,,IMP DU BOIS DE ROSE,0209,97490,97411,Saint-Denis,974,,,97411000BH0159,,,69,,,,,,,,,,1,2,Appartement,20,2,,,,,,55.481074,-20.899424
2019-1494272,2019-01-17,000001,Vente terrain à bâtir,63000,,,BAGATELLE HAMEAU,B060,97441,97420,Sainte-Suzanne,974,,,97420000AS1042,,,,,,,,,,,,,0,,,,,T,terres,,,202,55.579147,-20.928366
2019-1494273,2019-01-03,000001,Vente,70000,270,,CHE DU CENTRE,0430,97440,97409,Saint-André,974,,,97409000AH0141,,,22,66.79,,,,,,,,,1,2,Appartement,67,3,,,,,,55.64828,-20.941634
2019-1494273,2019-01-03,000001,Vente,70000,240,,CHE DU CENTRE,0430,97440,97409,Saint-André,974,,,97409000AH0141,,,69,,,,,,,,,,1,3,Dépendance,,0,,,,,,55.64828,-20.941634
2019-1494274,2019-01-03,000001,Vente,90140,50,,RUE DES CAMELIAS,0395,97440,97409,Saint-André,974,,,97409000AP1576,,,1,60.65,,,,,,,,,1,2,Appartement,45,3,,,,,,55.653386,-20.96143
2019-1494274,2019-01-03,000001,Vente,90140,50,,RUE DES CAMELIAS,0395,97440,97409,Saint-André,974,,,97409000AP1576,,,56,,,,,,,,,,1,3,Dépendance,,0,,,,,,55.653386,-20.96143
2019-1494274,2019-01-03,000001,Vente,90140,50,,RUE DES CAMELIAS,0395,97440,97409,Saint-André,974,,,97409000AP1576,,,33,,,,,,,,,,1,3,Dépendance,,0,,,,,,55.653386,-20.96143
2019-1494275,2019-01-18,000001,Vente,80000,,,BOURBIER LES HAUTS,B090,97470,97410,Saint-Benoît,974,,,97410000AH1171,,,,,,,,,,,,,0,,,,,AB,terrains a bâtir,,,257,55.689526,-21.027949
2019-1494276,2019-01-24,000001,Vente,66000,36,,SAINTE ANNE,B780,97437,97410,Saint-Benoît,974,,,97410000BN0358,,,,,,,,,,,,,0,1,Maison,63,6,S,sols,,,210,55.742379,-21.082272
2019-1494277,2019-01-07,000001,Vente,250000,5,,CHE VAR,1196,97420,97407,Le Port,974,,,97407000AY0180,,,,,,,,,,,,,0,1,Maison,106,5,S,sols,,,640,55.327034,-20.945917
2019-1494278,2019-01-17,000001,Vente terrain à bâtir,91560,287,,CHE MENCIOL,1260,97440,97409,Saint-André,974,,,97409000BM1281,,,,,,,,,,,,,0,1,Maison,90,4,S,sols,,,327,55.625292,-20.962754
2019-1494279,2019-01-11,000001,Vente,88500,10,,RUE DES CYTISES,0384,97400,97411,Saint-Denis,974,,,97411000DN0070,,,19,42.02,,,,,,,,,1,2,Appartement,42,2,,,,,,55.459792,-20.897306
2019-1494279,2019-01-11,000001,Vente,88500,10,,RUE DES CYTISES,0384,97400,97411,Saint-Denis,974,,,97411000DN0070,,,126,,,,,,,,,,1,3,Dépendance,,0,,,,,,55.459792,-20.897306
2019-1494280,2019-01-10,000001,Vente,227100,1,,IMP YLANG YLANG,1658,97460,97415,Saint-Paul,974,,,97415000AD0236,,,3,71.54,,,,,,,,,1,2,Appartement,69,3,,,,,,55.303863,-20.974227
2019-1494280,2019-01-10,000001,Vente,227100,1,,IMP YLANG YLANG,1658,97460,97415,Saint-Paul,974,,,97415000AD0236,,,47,,,,,,,,,,1,3,Dépendance,,0,,,,,,55.303863,-20.974227
2019-1494281,2019-01-15,000001,Vente,528250,59,,RUE COTE OUEST,0136,97419,97408,La Possession,974,,,97408000BK0280,,,,,,,,,,,,,0,1,Maison,100,4,AB,terrains a bâtir,,,485,55.345202,-20.928686
2019-1494282,2019-01-11,000001,Vente,155000,28,,CHE DU BOIS DE NATTE,0192,97490,97411,Saint-Denis,974,,,97411000HE0038,,,40,70.31,,,,,,,,,1,2,Appartement,67,3,,,,,,55.473293,-20.913916
2019-1494282,2019-01-11,000001,Vente,155000,28,,CHE DU BOIS DE NATTE,0192,97490,97411,Saint-Denis,974,,,97411000HE0038,,,91,,,,,,,,,,1,3,Dépendance,,0,,,,,,55.473293,-20.913916
2019-1494283,2019-01-04,000001,Vente,356200,25,T,RUE DES JACQUIERS,0756,97435,97415,Saint-Paul,974,,,97415000CS0943,,,,,,,,,,,,,0,1,Maison,106,6,S,sols,,,797,55.27353,-21.046642
2019-1494284,2019-01-31,000001,Vente,44500,215,,BD JEAN  JAURES,0692,97490,97411,Saint-Denis,974,,,97411000BH0048,,,463,21.71,,,,,,,,,1,2,Appartement,21,1,,,,,,55.478972,-20.898884
2019-1494285,2019-01-05,000001,Vente,830400,9,,RUE EVARISTE DE PARNY (GD FND),0581,97434,97415,Saint-Paul,974,,,97415000CY0153,,,,,,,,,,,,,0,1,Maison,123,4,S,sols,,,660,55.220083,-21.044854
2019-1494286,2019-01-18,000001,Vente,52000,213,,RTE NATIONALE 2 STE ANNE,0476,97437,97410,Saint-Benoît,974,,,97410000BX0046,,,,,,,,,,,,,0,1,Maison,76,5,S,sols,,,400,55.747535,-21.087808
2019-1494287,2019-01-04,000001,Vente en l'état futur d'achèvement,272000,6451,B,AV DE LA MER (FILAOS),0997,97434,97415,Saint-Paul,974,,,97415000DH0301,,,13,48.9,,,,,,,,,1,2,Appartement,48,2,,,,,,55.223377,-21.074579
2019-1494287,2019-01-04,000001,Vente en l'état futur d'achèvement,272000,6451,B,AV DE LA MER (FILAOS),0997,97434,97415,Saint-Paul,974,,,97415000DH0301,,,126,,,,,,,,,,1,3,Dépendance,,0,,,,,,55.223377,-21.074579
2019-1494288,2019-01-29,000001,Vente,700000,18,,RUE DES FLEURS D'ORANGER,0167,97419,97408,La Possession,974,,,97408000AR0394,,,,,,,,,,,,,0,1,Maison,122,3,S,sols,,,1826,55.327549,-20.967412
2019-1494288,2019-01-29,000001,Vente,700000,1,,RUE DU PERE MICHEL,0305,97419,97408,La Possession,974,,,97408000AR0878,,,,,,,,,,,,,0,,,,,S,sols,,,287,55.327787,-20.967467
2019-1494288,2019-01-29,000001,Vente,700000,79,,CHE SAINT ALME,0358,97419,97408,La Possession,974,,,97408000AR0966,,,,,,,,,,,,,0,,,,,S,sols,,,24,55.327702,-20.967601
2019-1494289,2019-01-17,000001,Vente,54500,45,,AV LECONTE DE LISLE,0756,97490,97411,Saint-Denis,974,,,97411000BE0460,,,89,,,,,,,,,,1,3,Dépendance,,0,,,,,,55.484059,-20.892319
2019-1494289,2019-01-17,000001,Vente,54500,45,,AV LECONTE DE LISLE,0756,97490,97411,Saint-Denis,974,,,97411000BE0460,,,1127,24.04,,,,,,,,,1,2,Appartement,24,1,,,,,,55.484059,-20.892319
2019-1494290,2019-01-16,000001,Vente,182000,6,,LOT SAMANTHA,A235,97470,97410,Saint-Benoît,974,,,97410000AI0649,,,,,,,,,,,,,0,1,Maison,75,4,AB,terrains a bâtir,,,434,55.705456,-21.029145
2019-1494291,2019-01-29,000001,Vente,2736,394,,CHE OLYMPE,0404,97470,97410,Saint-Benoît,974,,,97410000AY0369,,,,,,,,,,,,,0,,,,,T,terres,,,2736,55.659739,-21.046389
2019-1494292,2019-01-15,000001,Vente,5500,,,ZAC ST GILLES,B903,97434,97415,Saint-Paul,974,,,97415000DH0170,,,80,,,,,,,,,,1,3,Dépendance,,0,,,,,,55.221795,-21.073741
2019-1494293,2019-01-15,000001,Vente,24550,9001,,CHE DES ORANGERS     (BDN),1042,97411,97415,Saint-Paul,974,,,97415000AH1081,,,,,,,,,,,,,0,,,,,T,terres,,,586,55.341623,-20.980648
2019-1494294,2019-01-16,000001,Vente en l'état futur d'achèvement,247170,63,B,RUE DE LA CAVERNE  (ST PAUL),0280,97460,97415,Saint-Paul,974,,,97415000BP0468,,,24,,,,,,,,,,1,3,Dépendance,,0,,,,,,55.267789,-21.013076
2019-1494294,2019-01-16,000001,Vente en l'état futur d'achèvement,247170,63,B,RUE DE LA CAVERNE  (ST PAUL),0280,97460,97415,Saint-Paul,974,,,97415000BP0468,,,5,,,,,,,,,,1,2,Appartement,57,3,,,,,,55.267789,-21.013076
2019-1494295,2019-01-11,000001,Vente,65000,105,,RUE DE LA REPUBLIQUE,1180,97400,97411,Saint-Denis,974,,,97411000AH0140,,,213,40.22,,,,,,,,,1,2,Appartement,39,2,,,,,,55.447404,-20.882569
2019-1494295,2019-01-11,000001,Vente,65000,105,,RUE DE LA REPUBLIQUE,1180,97400,97411,Saint-Denis,974,,,97411000AH0140,,,342,,,,,,,,,,1,3,Dépendance,,0,,,,,,55.447404,-20.882569
2019-1494296,2019-01-16,000001,Vente en l'état futur d'achèvement,184946,63,B,RUE DE LA CAVERNE  (ST PAUL),0280,97460,97415,Saint-Paul,974,,,97415000BP0468,,,3,,,,,,,,,,1,2,Appartement,41,2,,,,,,55.267789,-21.013076
2019-1494296,2019-01-16,000001,Vente en l'état futur d'achèvement,184946,63,B,RUE DE LA CAVERNE  (ST PAUL),0280,97460,97415,Saint-Paul,974,,,97415000BP0468,,,22,,,,,,,,,,1,3,Dépendance,,0,,,,,,55.267789,-21.013076
2019-1494297,2019-01-04,000001,Vente,11821,,,AU DESSUS DE LA SALINE HAU,B003,97422,97415,Saint-Paul,974,,,97415000EI0124,,,,,,,,,,,,,0,,,,,T,terres,,,8769,55.307649,-21.083968
2019-1494298,2019-01-31,000001,Vente,130000,46,,LOT ERNEST LAPINSONNIERE,A073,97419,97408,La Possession,974,,,97408000AO0360,,,,,,,,,,,,,0,1,Maison,37,3,S,sols,,,197,55.337664,-20.954698
2019-1494299,2019-01-11,000001,Vente,153320,,,SAINTE THERESE,B310,97419,97408,La Possession,974,,,97408000AM1008,,,,,,,,,,,,,0,,,,,AB,terrains a bâtir,,,308,55.345484,-20.954461
2019-1494300,2019-01-15,000001,Vente,190500,,,RTE MAIDO,0942,97423,97415,Saint-Paul,974,,,97415000CH0547,,,,,,,,,,,,,0,1,Maison,100,5,S,sols,,,2058,55.306124,-21.0432
2019-1494300,2019-01-15,000001,Vente,190500,,,RTE MAIDO,0942,97423,97415,Saint-Paul,974,,,97415000CH0547,,,,,,,,,,,,,0,1,Maison,70,3,S,sols,,,2058,55.306124,-21.0432
2019-1494300,2019-01-15,000001,Vente,190500,,,RTE MAIDO,0942,97423,97415,Saint-Paul,974,,,97415000CH0547,,,,,,,,,,,,,0,4,Local industriel. commercial ou assimilé,43,0,S,sols,,,2058,55.306124,-21.0432
2019-1494301,2019-01-03,000001,Vente,408294.94,164,,RUE DES DEUX CANONS,0421,97490,97411,Saint-Denis,974,,,97411000BC0437,,,,,,,,,,,,,0,,,,,S,sols,,,228,55.473826,-20.89296
2019-1494302,2019-01-09,000001,Vente,395410,371,,ALL PALISSADE,1406,97440,97409,Saint-André,974,,,97409000AT0800,,,,,,,,,,,,,0,1,Maison,139,4,S,sols,,,794,55.676595,-20.954396
2019-1494303,2019-01-03,000001,Vente,140000,36,,RUE DE LA BOULANGERIE,0217,97400,97411,Saint-Denis,974,,,97411000AC0200,,,30,64.28,,,,,,,,,1,2,Appartement,64,3,,,,,,55.445458,-20.877899
2019-1494303,2019-01-03,000001,Vente,140000,34,,RUE DE LA BOULANGERIE,0217,97400,97411,Saint-Denis,974,,,97411000AC0200,,,135,,,,,,,,,,1,3,Dépendance,,0,,,,,,55.445458,-20.877899
2019-1494304,2019-01-04,000001,Vente,36000,7,,RUE DES GOYAVES      STE CLOTI,0573,97490,97411,Saint-Denis,974,,,97411000BD0558,,,29,,,,,,,,,,1,3,Dépendance,,0,,,,,,55.484329,-20.894308
2019-1494304,2019-01-04,000001,Vente,36000,,,RUE DES GOYAVES      STE CLOTI,0573,97490,97411,Saint-Denis,974,,,97411000BD0558,,,47,25.6,,,,,,,,,1,2,Appartement,21,1,,,,,,55.484329,-20.894308
2019-1494305,2019-02-05,000001,Vente,2436713,6,,ALL DES SERPENTINES,1357,97400,97411,Saint-Denis,974,,,97411000DH0015,,,,,,,,,,,,,0,2,Appartement,59,3,S,sols,,,2723,55.442075,-20.894921
2019-1494305,2019-02-05,000001,Vente,2436713,6,,ALL DES SERPENTINES,1357,97400,97411,Saint-Denis,974,,,97411000DH0015,,,,,,,,,,,,,0,2,Appartement,69,3,S,sols,,,2723,55.442075,-20.894921
2019-1494305,2019-02-05,000001,Vente,2436713,6,,ALL DES SERPENTINES,1357,97400,97411,Saint-Denis,974,,,97411000DH0015,,,,,,,,,,,,,0,2,Appartement,69,2,S,sols,,,2723,55.442075,-20.894921
2019-1494305,2019-02-05,000001,Vente,2436713,6,,ALL DES SERPENTINES,1357,97400,97411,Saint-Denis,974,,,97411000DH0015,,,,,,,,,,,,,0,2,Appartement,58,2,S,sols,,,2723,55.442075,-20.894921
2019-1494305,2019-02-05,000001,Vente,2436713,6,,ALL DES SERPENTINES,1357,97400,97411,Saint-Denis,974,,,97411000DH0015,,,,,,,,,,,,,0,2,Appartement,82,4,S,sols,,,2723,55.442075,-20.894921
2019-1494305,2019-02-05,000001,Vente,2436713,6,,ALL DES SERPENTINES,1357,97400,97411,Saint-Denis,974,,,97411000DH0015,,,,,,,,,,,,,0,2,Appartement,69,3,S,sols,,,2723,55.442075,-20.894921
2019-1494305,2019-02-05,000001,Vente,2436713,6,,ALL DES SERPENTINES,1357,97400,97411,Saint-Denis,974,,,97411000DH0015,,,,,,,,,,,,,0,2,Appartement,69,3,S,sols,,,2723,55.442075,-20.894921
2019-1494305,2019-02-05,000001,Vente,2436713,6,,ALL DES SERPENTINES,1357,97400,97411,Saint-Denis,974,,,97411000DH0015,,,,,,,,,,,,,0,2,Appartement,69,3,S,sols,,,2723,55.442075,-20.894921
2019-1494305,2019-02-05,000001,Vente,2436713,6,,ALL DES SERPENTINES,1357,97400,97411,Saint-Denis,974,,,97411000DH0015,,,,,,,,,,,,,0,2,Appartement,69,3,S,sols,,,2723,55.442075,-20.894921
2019-1494305,2019-02-05,000001,Vente,2436713,6,,ALL DES SERPENTINES,1357,97400,97411,Saint-Denis,974,,,97411000DH0015,,,,,,,,,,,,,0,2,Appartement,33,2,S,sols,,,2723,55.442075,-20.894921
2019-1494305,2019-02-05,000001,Vente,2436713,6,,ALL DES SERPENTINES,1357,97400,97411,Saint-Denis,974,,,97411000DH0015,,,,,,,,,,,,,0,2,Appartement,33,2,S,sols,,,2723,55.442075,-20.894921
2019-1494305,2019-02-05,000001,Vente,2436713,6,,ALL DES SERPENTINES,1357,97400,97411,Saint-Denis,974,,,97411000DH0015,,,,,,,,,,,,,0,2,Appartement,69,3,S,sols,,,2723,55.442075,-20.894921
2019-1494305,2019-02-05,000001,Vente,2436713,6,,ALL DES SERPENTINES,1357,97400,97411,Saint-Denis,974,,,97411000DH0015,,,,,,,,,,,,,0,2,Appartement,43,2,S,sols,,,2723,55.442075,-20.894921
2019-1494305,2019-02-05,000001,Vente,2436713,6,,ALL DES SERPENTINES,1357,97400,97411,Saint-Denis,974,,,97411000DH0015,,,,,,,,,,,,,0,2,Appartement,70,3,S,sols,,,2723,55.442075,-20.894921
2019-1494305,2019-02-05,000001,Vente,2436713,6,,ALL DES SERPENTINES,1357,97400,97411,Saint-Denis,974,,,97411000DH0015,,,,,,,,,,,,,0,2,Appartement,59,2,S,sols,,,2723,55.442075,-20.894921
2019-1494305,2019-02-05,000001,Vente,2436713,6,,ALL DES SERPENTINES,1357,97400,97411,Saint-Denis,974,,,97411000DH0015,,,,,,,,,,,,,0,2,Appartement,79,3,S,sols,,,2723,55.442075,-20.894921
2019-1494305,2019-02-05,000001,Vente,2436713,6,,ALL DES SERPENTINES,1357,97400,97411,Saint-Denis,974,,,97411000DH0015,,,,,,,,,,,,,0,2,Appartement,72,3,S,sols,,,2723,55.442075,-20.894921
2019-1494305,2019-02-05,000001,Vente,2436713,6,,ALL DES SERPENTINES,1357,97400,97411,Saint-Denis,974,,,97411000DH0015,,,,,,,,,,,,,0,2,Appartement,70,3,S,sols,,,2723,55.442075,-20.894921
2019-1494305,2019-02-05,000001,Vente,2436713,6,,ALL DES SERPENTINES,1357,97400,97411,Saint-Denis,974,,,97411000DH0015,,,,,,,,,,,,,0,2,Appartement,84,4,S,sols,,,2723,55.442075,-20.894921
2019-1494305,2019-02-05,000001,Vente,2436713,6,,ALL DES SERPENTINES,1357,97400,97411,Saint-Denis,974,,,97411000DH0015,,,,,,,,,,,,,0,2,Appartement,72,3,S,sols,,,2723,55.442075,-20.894921
2019-1494305,2019-02-05,000001,Vente,2436713,6,,ALL DES SERPENTINES,1357,97400,97411,Saint-Denis,974,,,97411000DH0015,,,,,,,,,,,,,0,2,Appartement,70,3,S,sols,,,2723,55.442075,-20.894921
2019-1494305,2019-02-05,000001,Vente,2436713,6,,ALL DES SERPENTINES,1357,97400,97411,Saint-Denis,974,,,97411000DH0015,,,,,,,,,,,,,0,2,Appartement,84,4,S,sols,,,2723,55.442075,-20.894921
2019-1494305,2019-02-05,000001,Vente,2436713,6,,ALL DES SERPENTINES,1357,97400,97411,Saint-Denis,974,,,97411000DH0015,,,,,,,,,,,,,0,2,Appartement,59,2,S,sols,,,2723,55.442075,-20.894921
2019-1494305,2019-02-05,000001,Vente,2436713,6,,ALL DES SERPENTINES,1357,97400,97411,Saint-Denis,974,,,97411000DH0015,,,,,,,,,,,,,0,2,Appartement,72,3,S,sols,,,2723,55.442075,-20.894921
2019-1494305,2019-02-05,000001,Vente,2436713,6,,ALL DES SERPENTINES,1357,97400,97411,Saint-Denis,974,,,97411000DH0015,,,,,,,,,,,,,0,2,Appartement,59,2,S,sols,,,2723,55.442075,-20.894921
2019-1494305,2019-02-05,000001,Vente,2436713,6,,ALL DES SERPENTINES,1357,97400,97411,Saint-Denis,974,,,97411000DH0015,,,,,,,,,,,,,0,2,Appartement,70,3,S,sols,,,2723,55.442075,-20.894921
2019-1494305,2019-02-05,000001,Vente,2436713,6,,ALL DES SERPENTINES,1357,97400,97411,Saint-Denis,974,,,97411000DH0015,,,,,,,,,,,,,0,2,Appartement,70,3,S,sols,,,2723,55.442075,-20.894921
2019-1494305,2019-02-05,000001,Vente,2436713,6,,ALL DES SERPENTINES,1357,97400,97411,Saint-Denis,974,,,97411000DH0015,,,,,,,,,,,,,0,2,Appartement,70,3,S,sols,,,2723,55.442075,-20.894921
2019-1494306,2019-01-30,000001,Vente en l'état futur d'achèvement,230000,282,,RTE DE BOIS DE NEFLES,0211,97490,97411,Saint-Denis,974,,,97411000HD0108,,,24,,,,,,,,,,1,2,Appartement,52,3,,,,,,55.476101,-20.907636
2019-1494306,2019-01-30,000001,Vente en l'état futur d'achèvement,230000,282,,RTE DE BOIS DE NEFLES,0211,97490,97411,Saint-Denis,974,,,97411000HD0108,,,89,,,,,,,,,,1,3,Dépendance,,0,,,,,,55.476101,-20.907636
2019-1494307,2019-01-17,000001,Vente,652000,104,,AV DE LA GRANDE OURSE,1746,97434,97415,Saint-Paul,974,,,97415000DE1117,,,,,,,,,,,,,0,1,Maison,207,5,AB,terrains a bâtir,,,682,55.228446,-21.065628
2019-1494308,2019-01-23,000001,Vente terrain à bâtir,80640,327,,CHE MENCIOL,1260,97440,97409,Saint-André,974,,,97409000BM1275,,,,,,,,,,,,,0,,,,,AB,terrains a bâtir,,,288,55.624767,-20.963366
2019-1494309,2019-02-05,000001,Vente,43000,9,,RUE JEAN COCTEAU,0651,97490,97411,Saint-Denis,974,,,97411000AY0394,,,92,19.42,,,,,,,,,1,2,Appartement,20,1,,,,,,55.467483,-20.886209
2019-1494309,2019-02-05,000001,Vente,43000,9,,RUE JEAN COCTEAU,0651,97490,97411,Saint-Denis,974,,,97411000AY0394,,,33,,,,,,,,,,1,3,Dépendance,,0,,,,,,55.467483,-20.886209
2019-1494310,2019-01-22,000001,Vente,220000,1,,ALL DES AGATES,0034,97400,97411,Saint-Denis,974,,,97411000DH0052,,,27,41.4,,,,,,,,,1,2,Appartement,42,2,,,,,,55.445529,-20.895145
2019-1494310,2019-01-22,000001,Vente,220000,1,,ALL DES AGATES,0034,97400,97411,Saint-Denis,974,,,97411000DH0052,,,59,,,,,,,,,,1,3,Dépendance,,0,,,,,,55.445529,-20.895145
2019-1494311,2019-01-31,000001,Vente,570000,1,,PARC D ACTIVITE DE LA MARE,A124,97438,97418,Sainte-Marie,974,,,97418000AC1450,,,10,380.91,44,,45,,46,,,,4,4,Local industriel. commercial ou assimilé,364,0,,,,,,55.529115,-20.898627
2019-1494312,2019-01-17,000001,Vente,852120,57,,IMP DU CALVAIRE,0252,97434,97415,Saint-Paul,974,,,97415000CZ1184,,,,,,,,,,,,,0,4,Local industriel. commercial ou assimilé,40,0,S,sols,,,646,55.223253,-21.04795
2019-1494312,2019-01-17,000001,Vente,852120,57,,IMP DU CALVAIRE,0252,97434,97415,Saint-Paul,974,,,97415000CZ1184,,,,,,,,,,,,,0,1,Maison,111,5,S,sols,,,646,55.223253,-21.04795
2019-1494313,2019-01-21,000001,Vente,236700,223,,RUE DE LA MARINE,1205,97440,97409,Saint-André,974,,,97409000AT1059,,,,,,,,,,,,,0,1,Maison,107,4,S,sols,,,400,55.681805,-20.946853
2019-1494314,2019-01-28,000001,Vente,6200,5121,,RTE NATIONALE 2,0160,97439,97419,Sainte-Rose,974,,,97419000AK0617,,,,,,,,,,,,,0,,,,,S,sols,,,633,55.777713,-21.124662
2019-1494315,2019-01-21,000002,Vente,120000,5038,,CHE DE L'ESPERANCE,0190,97441,97420,Sainte-Suzanne,974,,,97420000AV0507,,,,,,,,,,,,,0,,,,,B,bois,,,511,55.606042,-20.951347
2019-1494316,2019-01-22,000001,Vente terrain à bâtir,62000,36,,CHE LATTENTION EMILIEN,0791,97441,97420,Sainte-Suzanne,974,,,97420000AS1032,,,,,,,,,,,,,0,1,Maison,98,4,S,sols,,,194,55.579066,-20.927459
2019-1494317,2019-01-31,000001,Vente en l'état futur d'achèvement,184500,282,,RTE DE BOIS DE NEFLES,0211,97490,97411,Saint-Denis,974,,,97411000HD0108,,,130,,,,,,,,,,1,3,Dépendance,,0,,,,,,55.476101,-20.907636
2019-1494317,2019-01-31,000001,Vente en l'état futur d'achèvement,184500,282,,RTE DE BOIS DE NEFLES,0211,97490,97411,Saint-Denis,974,,,97411000HD0108,,,42,,,,,,,,,,1,2,Appartement,37,2,,,,,,55.476101,-20.907636
2019-1494318,2019-01-22,000001,Vente,97000,5002,,RUE LAURENT DAMOUR,0661,97441,97420,Sainte-Suzanne,974,,,97420000BH1952,,,,,,,,,,,,,0,,,,,T,terres,,,307,55.619378,-20.952981
2019-1494319,2019-01-22,000001,Vente,90000,5002,,RUE LAURENT DAMOUR,0661,97441,97420,Sainte-Suzanne,974,,,97420000BH1957,,,,,,,,,,,,,0,,,,,T,terres,,,357,55.619947,-20.953017
2019-1494320,2019-01-22,000001,Vente,230000,13,,RUE SAINTE MARIE,1320,97400,97411,Saint-Denis,974,,,97411000AL0009,,,26,,,,,,,,,,1,3,Dépendance,,0,,,,,,55.447995,-20.884351
2019-1494320,2019-01-22,000001,Vente,230000,13,,RUE SAINTE MARIE,1320,97400,97411,Saint-Denis,974,,,97411000AL0009,,,36,,92,78.23,,,,,,,2,2,Appartement,89,4,,,,,,55.447995,-20.884351
2019-1494321,2019-01-14,000001,Vente,37000,14,,RUE DU BEARN,0157,97490,97411,Saint-Denis,974,,,97411000HT0050,,,37,,,,,,,,,,1,3,Dépendance,,0,,,,,,55.489445,-20.903177
2019-1494321,2019-01-14,000001,Vente,37000,14,,RUE DU BEARN,0157,97490,97411,Saint-Denis,974,,,97411000HT0050,,,109,22.05,,,,,,,,,1,2,Appartement,23,1,,,,,,55.489445,-20.903177
2019-1494322,2019-01-17,000001,Vente,88000,5002,,RUE LAURENT DAMOUR,0661,97441,97420,Sainte-Suzanne,974,,,97420000BH1975,,,,,,,,,,,,,0,,,,,T,terres,,,312,55.620798,-20.953063
2019-1494323,2019-01-16,000001,Vente,105000,112,,RUE PABLO NERUDA,0256,97419,97408,La Possession,974,,,97408000AO0614,,,107,,,,,,,,,,1,3,Dépendance,,0,,,,,,55.331599,-20.954289
2019-1494323,2019-01-16,000001,Vente,105000,,,RUE PABLO NERUDA,0256,97419,97408,La Possession,974,,,97408000AO0614,,,55,57.68,,,,,,,,,1,2,Appartement,60,3,,,,,,55.331599,-20.954289
2019-1494324,2019-01-17,000001,Vente,88000,5002,,RUE LAURENT DAMOUR,0661,97441,97420,Sainte-Suzanne,974,,,97420000BH1984,,,,,,,,,,,,,0,,,,,T,terres,,,336,55.620329,-20.953205
2019-1494325,2019-01-07,000002,Vente,180000,32,,CHE DU RUISSEAU BLANC,1228,97417,97411,Saint-Denis,974,,,97411000CD1376,,,,,,,,,,,,,0,,,,,S,sols,,,568,55.414295,-20.893549
2019-1494326,2019-01-17,000001,Vente,87000,5002,,RUE LAURENT DAMOUR,0661,97441,97420,Sainte-Suzanne,974,,,97420000BH1960,,,,,,,,,,,,,0,,,,,T,terres,,,321,55.6199,-20.953237
2019-1494327,2019-01-10,000001,Vente,200000,324,,CHE LAZARRE,1064,97440,97409,Saint-André,974,,,97409000AZ0918,,,,,,,,,,,,,0,1,Maison,61,4,S,sols,,,407,55.687591,-20.975718
2019-1494328,2019-01-21,000001,Vente,102000,5002,,RUE LAURENT DAMOUR,0661,97441,97420,Sainte-Suzanne,974,,,97420000BH1949,,,,,,,,,,,,,0,,,,,T,terres,,,480,55.61936,-20.953237
2019-1494329,2019-01-17,000001,Vente,1900000,,,LE CAP HOMARD,B147,97434,97415,Saint-Paul,974,,,97415000CY0327,,,,,,,,,,,,,0,,,,,S,sols,,,840,55.222954,-21.040543
2019-1494329,2019-01-17,000001,Vente,1900000,10,,RUE DES STERNES,1391,97434,97415,Saint-Paul,974,,,97415000CY0339,,,,,,,,,,,,,0,1,Maison,243,10,S,sols,,,2020,55.222489,-21.042445
2019-1494329,2019-01-17,000001,Vente,1900000,12,,RUE DES CORMORANS (STG LES B),0407,97434,97415,Saint-Paul,974,,,97415000CY0384,,,,,,,,,,,,,0,,,,,AG,terrains d'agrément,,,2820,55.221791,-21.040468
2019-1494329,2019-01-17,000001,Vente,1900000,9999,,RUE DES CORMORANS (STG LES B),0407,97434,97415,Saint-Paul,974,,,97415000CY0385,,,,,,,,,,,,,0,4,Local industriel. commercial ou assimilé,,0,S,sols,,,12226,55.22158,-21.040867
2019-1494330,2019-01-21,000001,Vente,135000,841,,RTE DE SALAZIE,1750,97440,97409,Saint-André,974,,,97409000BO0307,,,,,,,,,,,,,0,,,,,T,terres,,,687,55.633233,-20.981199
2019-1494330,2019-01-21,000001,Vente,135000,841,,RTE DE SALAZIE,1750,97440,97409,Saint-André,974,,,97409000BO0310,,,,,,,,,,,,,0,,,,,T,terres,,,588,55.633041,-20.981044
2019-1494331,2019-01-31,000001,Vente,137000,750,,RTE DE SALAZIE,1750,97440,97409,Saint-André,974,,,97409000BO0383,,,,,,,,,,,,,0,,,,,AB,terrains a bâtir,,,1403,55.63177,-20.979805
2019-1494332,2019-01-31,000001,Vente,185000,24,B,CHE GLAIEULS I,0233,97441,97420,Sainte-Suzanne,974,,,97420000BH1537,,,,,,,,,,,,,0,1,Maison,96,4,S,sols,,,712,55.592882,-20.960821
2019-1494333,2019-01-21,000001,Vente,215000,17,,CHE NEUF         LA MONTAGNE,0998,97417,97411,Saint-Denis,974,,,97411000BZ0323,,,,,,,,,,,,,0,1,Maison,55,4,S,sols,,,600,55.426834,-20.885055
2019-1494334,2019-01-18,000001,Vente,90000,5002,,RUE LAURENT DAMOUR,0661,97441,97420,Sainte-Suzanne,974,,,97420000BH1979,,,,,,,,,,,,,0,,,,,T,terres,,,291,55.620398,-20.952908
2019-1494335,2019-01-18,000001,Vente,102000,5002,,RUE LAURENT DAMOUR,0661,97441,97420,Sainte-Suzanne,974,,,97420000BH1982,,,,,,,,,,,,,0,,,,,T,terres,,,510,55.620878,-20.952765
2019-1494336,2019-01-18,000001,Vente,87000,5002,,RUE LAURENT DAMOUR,0661,97441,97420,Sainte-Suzanne,974,,,97420000BH1959,,,,,,,,,,,,,0,,,,,T,terres,,,319,55.619803,-20.953154
2019-1494337,2019-01-18,000001,Vente,97000,5002,,RUE LAURENT DAMOUR,0661,97441,97420,Sainte-Suzanne,974,,,97420000BH1945,,,,,,,,,,,,,0,,,,,T,terres,,,382,55.619928,-20.953583
2019-1494338,2019-01-22,000001,Vente en l'état futur d'achèvement,127865,2,,IMP DU BOIS DE ROSE,0209,97490,97411,Saint-Denis,974,,,97411000BH0159,,,76,,,,,,,,,,1,2,Appartement,40,2,,,,,,55.481074,-20.899424
2019-1494338,2019-01-22,000001,Vente en l'état futur d'achèvement,127865,2,,IMP DU BOIS DE ROSE,0209,97490,97411,Saint-Denis,974,,,97411000BH0159,,,132,16.5,,,,,,,,,1,,,,,,,,,,55.481074,-20.899424
2019-1494339,2019-01-25,000001,Vente,660000,20,,CHE BOTTARD,0199,97434,97415,Saint-Paul,974,,,97415000HM0045,,,32,,,,,,,,,,1,3,Dépendance,,0,,,,,,55.232729,-21.051361
2019-1494339,2019-01-25,000001,Vente,660000,20,,CHE BOTTARD,0199,97434,97415,Saint-Paul,974,,,97415000HM0045,,,16,,,,,,,,,,1,2,Appartement,143,4,,,,,,55.232729,-21.051361
2019-1494340,2019-01-17,000001,Vente,38000,4,,RUE GASTON  DEFFERRE,0688,97490,97411,Saint-Denis,974,,,97411000BH0735,,,102,21.31,,,,,,,,,1,2,Appartement,21,2,,,,,,55.481413,-20.900616
2019-1494340,2019-01-17,000001,Vente,38000,4,,RUE GASTON  DEFFERRE,0688,97490,97411,Saint-Denis,974,,,97411000BH0735,,,3,,,,,,,,,,1,3,Dépendance,,0,,,,,,55.481413,-20.900616
2019-1494341,2019-01-10,000001,Vente,265000,,,ST GILLES LES BAINS,B744,97434,97415,Saint-Paul,974,,,97415000DE1260,,,,,,,,,,,,,0,,,,,L,landes,,,403,55.231014,-21.062066
2019-1494342,2019-01-11,000001,Vente,80000,38,,CHE DE LA GROTTE      LA BRETA,0599,97490,97411,Saint-Denis,974,,,97411000IC0040,,,,,,,,,,,,,0,1,Maison,84,5,S,sols,,,911,55.492473,-20.917918
2019-1494343,2019-01-24,000001,Vente,85000,,,IMP DE TROMELIN,0518,97419,97408,La Possession,974,,,97408000AP0812,,,82,,,,,,,,,,1,3,Dépendance,,0,,,,,,55.330833,-20.962241
2019-1494343,2019-01-24,000001,Vente,85000,18,,IMP DE TROMELIN,0518,97419,97408,La Possession,974,,,97408000AP0812,,,37,39.19,,,,,,,,,1,2,Appartement,40,2,,,,,,55.330833,-20.962241
2019-1494344,2019-01-17,000001,Vente,125000,5,,RUE JEAN COCTEAU,0651,97490,97411,Saint-Denis,974,,,97411000AY0393,,,27,,,,,,,,,,1,3,Dépendance,,0,,,,,,55.467639,-20.885718
2019-1494344,2019-01-17,000001,Vente,125000,5,,RUE JEAN COCTEAU,0651,97490,97411,Saint-Denis,974,,,97411000AY0393,,,76,55.37,,,,,,,,,1,2,Appartement,56,3,,,,,,55.467639,-20.885718
2019-1494345,2019-01-24,000002,Vente,148000,54,,RLE DES PALMISTES,1420,97440,97409,Saint-André,974,,,97409000AP1752,,,,,,,,,,,,,0,,,,,S,sols,,,362,55.652383,-20.957115
2019-1494346,2019-01-17,000001,Vente,160000,34,,CHE DU TAN ROUGE,1430,97435,97415,Saint-Paul,974,,,97415000DR1276,,,,,,,,,,,,,0,,,,,S,sols,,,97,55.283954,-21.055241
2019-1494346,2019-01-17,000001,Vente,160000,34,,CHE DU TAN ROUGE,1430,97435,97415,Saint-Paul,974,,,97415000DR1277,,,,,,,,,,,,,0,,,,,S,sols,,,244,55.284293,-21.055295
2019-1494346,2019-01-17,000001,Vente,160000,34,,CHE DU TAN ROUGE,1430,97435,97415,Saint-Paul,974,,,97415000DR1278,,,,,,,,,,,,,0,,,,,S,sols,,,174,55.284455,-21.055393
2019-1494346,2019-01-17,000001,Vente,160000,151,,CD CD 4 DE SALINE A SAVANNAH,0441,97460,97415,Saint-Paul,974,,,97415000DR1281,,,,,,,,,,,,,0,,,,,S,sols,,,802,55.284078,-21.055355
2019-1494346,2019-01-17,000001,Vente,160000,151,,CD CD 4 DE SALINE A SAVANNAH,0441,97460,97415,Saint-Paul,974,,,97415000DR1285,,,,,,,,,,,,,0,,,,,AB,terrains a bâtir,,,344,55.284413,-21.055439
2019-1494347,2019-01-17,000001,Vente,50000,34,,CHE DE LA POUDRIERE,1203,97460,97415,Saint-Paul,974,,,97415000BV0743,,,,,,,,,,,,,0,,,,,L,landes,,,868,55.28644,-21.015138
2019-1494348,2019-01-10,000001,Vente,53000,5,,RUE DU MAINE,0806,97490,97411,Saint-Denis,974,,,97411000HT0039,,,137,,,,,,,,,,1,3,Dépendance,,0,,,,,,55.491286,-20.903247
2019-1494348,2019-01-10,000001,Vente,53000,5,,RUE DU MAINE,0806,97490,97411,Saint-Denis,974,,,97411000HT0039,,,44,25.69,,,,,,,,,1,2,Appartement,25,1,,,,,,55.491286,-20.903247
2019-1494349,2019-01-21,000001,Vente en l'état futur d'achèvement,92854.26,2,,IMP DU BOIS DE ROSE,0209,97490,97411,Saint-Denis,974,,,97411000BH0159,,,22,,,,,,,,,,1,2,Appartement,20,1,,,,,,55.481074,-20.899424
2019-1494350,2019-01-16,000002,Vente,88035,10,,RUE FLORE DAMOUR,0104,97470,97410,Saint-Benoît,974,,,97410000AS1363,,,,,,,,,,,,,0,1,Maison,87,4,S,sols,,,293,55.70898,-21.050332
2019-1494351,2019-01-29,000001,Vente,95000,5,E,RUE JUSTIN BAPTISTE,0053,97419,97408,La Possession,974,,,97408000BN3615,,,56,46,57,45,,,,,,,2,4,Local industriel. commercial ou assimilé,91,0,,,,,,55.334053,-20.929881
2019-1494352,2019-01-21,000001,Vente en l'état futur d'achèvement,92782.72,2,,IMP DU BOIS DE ROSE,0209,97490,97411,Saint-Denis,974,,,97411000BH0159,,,19,,,,,,,,,,1,2,Appartement,20,1,,,,,,55.481074,-20.899424
2019-1494353,2019-01-25,000002,Vente,140000,,,LA GRANDE RAVINE LES HAUTS,B410,97441,97420,Sainte-Suzanne,974,,,97420000AR0946,,,,,,,,,,,,,0,,,,,T,terres,,,487,55.591308,-20.925158
2019-1494354,2019-01-22,000001,Vente en l'état futur d'achèvement,88500,2,,IMP DU BOIS DE ROSE,0209,97490,97411,Saint-Denis,974,,,97411000BH0159,,,45,,,,,,,,,,1,,,,,,,,,,55.481074,-20.899424
2019-1494354,2019-01-22,000001,Vente en l'état futur d'achèvement,88500,2,,IMP DU BOIS DE ROSE,0209,97490,97411,Saint-Denis,974,,,97411000BH0159,,,124,,,,,,,,,,1,,,,,,,,,,55.481074,-20.899424
2019-1494355,2019-01-28,000001,Vente,85000,,,PITON CAILLOU,B410,97438,97418,Sainte-Marie,974,,,97418000AP4139,,,,,,,,,,,,,0,,,,,B,bois,,,483,55.528137,-20.948306
2019-1494356,2019-01-21,000001,Vente,120000,,,CHE DES CHANDELLES LA BRETAGNE,0248,97490,97411,Saint-Denis,974,,,97411000IM0044,,,,,,,,,,,,,0,,,,,S,sols,,,256,55.493805,-20.933339
2019-1494356,2019-01-21,000001,Vente,120000,1,,CHE DES CHANDELLES LA BRETAGNE,0248,97490,97411,Saint-Denis,974,,,97411000IM0125,,,,,,,,,,,,,0,1,Maison,45,3,S,sols,,,365,55.493867,-20.933245
2019-1494357,2019-01-28,000001,Vente,49000,240,,CHE DU CENTRE,0430,97440,97409,Saint-André,974,,,97409000AH0141,,,76,,,,,,,,,,1,3,Dépendance,,0,,,,,,55.64828,-20.941634
2019-1494357,2019-01-28,000001,Vente,49000,230,,CHE DU CENTRE,0430,97440,97409,Saint-André,974,,,97409000AH0141,,,17,50.64,,,,,,,,,1,2,Appartement,53,2,,,,,,55.64828,-20.941634
2019-1494358,2019-02-04,000001,Vente,100000,19,,RUE DU PERE FAYET,0689,97441,97420,Sainte-Suzanne,974,,,97420000AS0052,,,,,,,,,,,,,0,1,Maison,83,4,S,sols,,,280,55.581281,-20.929456
2019-1494359,2019-02-07,000001,Vente,114700,20,B,RUE DES PANIERS,1055,97400,97411,Saint-Denis,974,,,97411000ES0107,,,65,,,,,,,,,,1,3,Dépendance,,0,,,,,,55.458869,-20.899167
2019-1494359,2019-02-07,000001,Vente,114700,20,B,RUE DES PANIERS,1055,97400,97411,Saint-Denis,974,,,97411000ES0107,,,26,47.17,,,,,,,,,1,2,Appartement,47,2,,,,,,55.458869,-20.899167
2019-1494360,2019-01-25,000001,Vente en l'état futur d'achèvement,95970,2,,IMP DU BOIS DE ROSE,0209,97490,97411,Saint-Denis,974,,,97411000BH0159,,,29,,,,,,,,,,1,2,Appartement,20,2,,,,,,55.481074,-20.899424
2019-1494360,2019-01-25,000001,Vente en l'état futur d'achèvement,95970,2,,IMP DU BOIS DE ROSE,0209,97490,97411,Saint-Denis,974,,,97411000BH0159,,,105,,,,,,,,,,1,3,Dépendance,,0,,,,,,55.481074,-20.899424
2019-1494361,2019-01-23,000001,Vente,87775,8,,RUE FLORE DAMOUR,0104,97470,97410,Saint-Benoît,974,,,97410000AS1361,,,,,,,,,,,,,0,1,Maison,87,4,S,sols,,,286,55.709094,-21.050243
2019-1494362,2019-01-18,000001,Vente,107000,,,GILLOT SUD,B185,97438,97418,Sainte-Marie,974,,,97418000AW0715,,,,,,,,,,,,,0,,,,,T,terres,,,248,55.516194,-20.907317
2019-1494363,2019-02-01,000001,Vente,135000,30,,RUE CLEMENT ADER,0045,97438,97418,Sainte-Marie,974,,,97418000AY0202,,,,,,,,,,,,,0,1,Maison,67,3,S,sols,,,281,55.521922,-20.901819
2019-1494364,2019-01-18,000001,Vente,270000,6,,RUE ELIARD LAUDE,0171,97419,97408,La Possession,974,,,97408000BR0108,,,,,,,,,,,,,0,1,Maison,73,4,S,sols,,,360,55.331704,-20.937802
2019-1494365,2019-01-21,000001,Vente,90000,6,,CHE COMMUNE DES BEGUES,0037,97441,97420,Sainte-Suzanne,974,,,97420000BC1284,,,16,44.41,,,,,,,,,1,2,Appartement,44,2,,,,,,55.640158,-20.933365
2019-1494365,2019-01-21,000001,Vente,90000,6,,CHE COMMUNE DES BEGUES,0037,97441,97420,Sainte-Suzanne,974,,,97420000BC1284,,,47,,,,,,,,,,1,3,Dépendance,,0,,,,,,55.640158,-20.933365
2019-1494366,2019-01-11,000001,Vente,179000,17,,LE MOULIN JOLI,B210,97419,97408,La Possession,974,,,97408000AO1437,,,133,,,,,,,,,,1,3,Dépendance,,0,,,,,,55.327154,-20.956104
2019-1494366,2019-01-11,000001,Vente,179000,17,,LE MOULIN JOLI,B210,97419,97408,La Possession,974,,,97408000AO1437,,,27,112.86,,,,,,,,,1,2,Appartement,115,4,,,,,,55.327154,-20.956104
2019-1494366,2019-01-11,000001,Vente,179000,17,,LE MOULIN JOLI,B210,97419,97408,La Possession,974,,,97408000AO1437,,,85,,,,,,,,,,1,3,Dépendance,,0,,,,,,55.327154,-20.956104
2019-1494367,2019-01-10,000001,Vente,357213.88,25,,RTE LA RIVIERE DES PLUIES,1187,97490,97411,Saint-Denis,974,,,97411000BN0340,,,33,,34,,6,40,7,40.4,,,4,4,Local industriel. commercial ou assimilé,90,0,,,,,,55.503353,-20.902544
2019-1494368,2019-01-09,000001,Vente,65000,5,,MARE A CITRONS,B490,97433,97421,Salazie,974,,,97421000AL0492,,,,,,,,,,,,,0,,,,,AB,terrains a bâtir,,,410,55.530733,-21.031671
2019-1494369,2019-01-10,000001,Vente,155000,48,,ALL DES TERRASSES      MTGAILL,1416,97400,97411,Saint-Denis,974,,,97411000HA0093,,,76,,,,,,,,,,1,3,Dépendance,,0,,,,,,55.466979,-20.903695
2019-1494369,2019-01-10,000001,Vente,155000,50,,ALL DES TERRASSES      MTGAILL,1416,97400,97411,Saint-Denis,974,,,97411000HA0093,,,52,64.24,,,,,,,,,1,2,Appartement,64,3,,,,,,55.466979,-20.903695
2019-1494370,2019-01-17,000001,Vente,70000,43,,LOT LES CAZALES,A055,97440,97409,Saint-André,974,,,97409000AO0497,,,,,,,,,,,,,0,1,Maison,61,4,S,sols,,,248,55.64734,-20.959523
2019-1494371,2019-01-14,000001,Vente,110445,45,,CHE DES LANTANAS,0837,97434,97415,Saint-Paul,974,,,97415000CY0392,,,13,17.91,,,,,,,,,1,2,Appartement,16,1,,,,,,55.224869,-21.038318
2019-1494371,2019-01-14,000001,Vente,110445,45,,CHE DES LANTANAS,0837,97434,97415,Saint-Paul,974,,,97415000CY0392,,,73,,,,,,,,,,1,3,Dépendance,,0,,,,,,55.224869,-21.038318
2019-1494371,2019-01-14,000001,Vente,110445,45,,CHE DES LANTANAS,0837,97434,97415,Saint-Paul,974,,,97415000CY0392,,,32,,,,,,,,,,1,3,Dépendance,,0,,,,,,55.224869,-21.038318
2019-1494372,2019-01-21,000001,Vente,70000,,,ST GILLES LES BAINS,B744,97434,97415,Saint-Paul,974,,,97415000DE1238,,,,,,,,,,,,,0,,,,,L,landes,,,219,55.231017,-21.062454
2019-1494373,2019-01-17,000001,Vente,120000,245,,CHE DES COMBAVAS,0370,97411,97415,Saint-Paul,974,,,97415000AZ0944,,,,,,,,,,,,,0,1,Maison,53,3,S,sols,,,294,55.324282,-20.995788
2019-1494374,2019-01-14,000001,Vente,127100,74,,ALL DES TOPAZES,1397,97400,97411,Saint-Denis,974,,,97411000DH0025,,,56,,,,,,,,,,1,3,Dépendance,,0,,,,,,55.443038,-20.896209
2019-1494374,2019-01-14,000001,Vente,127100,74,,ALL DES TOPAZES,1397,97400,97411,Saint-Denis,974,,,97411000DH0025,,,69,,,,,,,,,,1,3,Dépendance,,0,,,,,,55.443038,-20.896209
2019-1494374,2019-01-14,000001,Vente,127100,74,,ALL DES TOPAZES,1397,97400,97411,Saint-Denis,974,,,97411000DH0025,,,4,48.74,,,,,,,,,1,2,Appartement,48,2,,,,,,55.443038,-20.896209
2019-1494375,2019-01-18,000001,Vente,317000,36,,RUE DE L'AEROPOSTALE,0089,97411,97415,Saint-Paul,974,,,97415000AY0978,,,,,,,,,,,,,0,1,Maison,98,4,S,sols,,,454,55.328606,-20.990988
2019-1494376,2019-01-17,000001,Vente,96500,81,,RUE ROMAIN ROLLAND,0335,97419,97408,La Possession,974,,,97408000AO1414,,,1089,,,,,,,,,,1,3,Dépendance,,0,,,,,,55.331177,-20.951697
2019-1494376,2019-01-17,000001,Vente,96500,81,,RUE ROMAIN ROLLAND,0335,97419,97408,La Possession,974,,,97408000AO1414,,,1015,58.5,,,,,,,,,1,2,Appartement,58,3,,,,,,55.331177,-20.951697
2019-1494377,2019-01-22,000001,Vente,69668,2,,ALL DES OEILLETS,1023,97490,97411,Saint-Denis,974,,,97411000HP0230,,,,,,,,,,,,,0,1,Maison,55,4,S,sols,,,264,55.48634,-20.915111
2019-1494378,2019-01-16,000001,Vente,79000,16,T,RUE LORY LES HAUTS,0781,97490,97411,Saint-Denis,974,,,97411000BD0723,,,55,,,,,,,,,,1,3,Dépendance,,0,,,,,,55.481353,-20.893977
2019-1494378,2019-01-16,000001,Vente,79000,16,T,RUE LORY LES HAUTS,0781,97490,97411,Saint-Denis,974,,,97411000BD0723,,,49,82.61,,,,,,,,,1,2,Appartement,85,2,,,,,,55.481353,-20.893977
2019-1494378,2019-01-16,000001,Vente,79000,16,B,RUE LORY LES HAUTS,0781,97490,97411,Saint-Denis,974,,,97411000BD0723,,,244,,,,,,,,,,1,3,Dépendance,,0,,,,,,55.481353,-20.893977
2019-1494379,2019-01-17,000001,Vente,5000,81,,RUE ROMAIN ROLLAND,0335,97419,97408,La Possession,974,,,97408000AO1414,,,1070,,,,,,,,,,1,3,Dépendance,,0,,,,,,55.331177,-20.951697
2019-1494380,2019-01-17,000002,Vente,91000,81,,RUE ROMAIN ROLLAND,0335,97419,97408,La Possession,974,,,97408000AO1414,,,1026,49.6,,,,,,,,,1,2,Appartement,49,3,,,,,,55.331177,-20.951697
2019-1494381,2019-01-21,000001,Vente,85000,6,,CHE COMMUNE DES BEGUES,0037,97441,97420,Sainte-Suzanne,974,,,97420000BC1284,,,48,,,,,,,,,,1,3,Dépendance,,0,,,,,,55.640158,-20.933365
2019-1494381,2019-01-21,000001,Vente,85000,6,,CHE COMMUNE DES BEGUES,0037,97441,97420,Sainte-Suzanne,974,,,97420000BC1284,,,12,45.08,,,,,,,,,1,2,Appartement,45,2,,,,,,55.640158,-20.933365
2019-1494382,2019-01-24,000001,Vente,407000,33,,RUE MONTREUIL,0970,97400,97411,Saint-Denis,974,,,97411000AN0092,,,,,,,,,,,,,0,4,Local industriel. commercial ou assimilé,355,0,S,sols,,,413,55.457022,-20.884418
2019-1494383,2019-01-16,000001,Vente,195000,8,,IMP DES CARAMBOLES,0906,97470,97410,Saint-Benoît,974,,,97410000AH0844,,,,,,,,,,,,,0,1,Maison,148,5,S,sols,,,491,55.690726,-21.030724
2019-1494384,2019-01-15,000001,Vente,275000,23,,AV DE L USINE,1701,97434,97415,Saint-Paul,974,,,97415000EV0687,,,26,,,,,,,,,,1,3,Dépendance,,0,,,,,,55.238638,-21.085969
2019-1494384,2019-01-15,000001,Vente,275000,23,,AV DE L USINE,1701,97434,97415,Saint-Paul,974,,,97415000EV0687,,,12,72.78,,,,,,,,,1,2,Appartement,72,4,,,,,,55.238638,-21.085969
2019-1494384,2019-01-15,000001,Vente,275000,23,,AV DE L USINE,1701,97434,97415,Saint-Paul,974,,,97415000EV0687,,,27,,,,,,,,,,1,3,Dépendance,,0,,,,,,55.238638,-21.085969
2019-1494385,2019-01-17,000001,Vente,158505,36,,RUE SARDA GARRIGA,0360,97419,97408,La Possession,974,,,97408000BN3626,,,42,,,,,,,,,,1,3,Dépendance,,0,,,,,,55.333984,-20.93135
2019-1494385,2019-01-17,000001,Vente,158505,12,,RUE VICTOR SCHOELCHER,0381,97419,97408,La Possession,974,,,97408000BN3626,,,8,62.91,,,,,,,,,1,2,Appartement,63,3,,,,,,55.333984,-20.93135
2019-1494385,2019-01-17,000001,Vente,158505,36,,RUE SARDA GARRIGA,0360,97419,97408,La Possession,974,,,97408000BN3626,,,43,,,,,,,,,,1,3,Dépendance,,0,,,,,,55.333984,-20.93135
2019-1494386,2019-01-28,000003,Vente,70000,1,,CHE MIKA,0986,97422,97415,Saint-Paul,974,,,97415000ES0887,,,,,,,,,,,,,0,1,Maison,90,3,,,,,,55.274984,-21.100503
2019-1494387,2019-02-11,000001,Vente,135000,66,,BD SAINT FRANCOIS,1261,97400,97411,Saint-Denis,974,,,97411000ES0054,,,630,,,,,,,,,,1,3,Dépendance,,0,,,,,,55.461449,-20.899575
2019-1494387,2019-02-11,000001,Vente,135000,66,,BD SAINT FRANCOIS,1261,97400,97411,Saint-Denis,974,,,97411000ES0054,,,164,65.77,,,,,,,,,1,2,Appartement,66,3,,,,,,55.461449,-20.899575
2019-1494387,2019-02-11,000001,Vente,135000,66,,BD SAINT FRANCOIS,1261,97400,97411,Saint-Denis,974,,,97411000ES0054,,,631,,,,,,,,,,1,3,Dépendance,,0,,,,,,55.461449,-20.899575
2019-1494388,2019-02-01,000001,Vente,150000,59,,CITE SARDA GARRIGA,A035,97470,97410,Saint-Benoît,974,,,97410000AR0124,,,,,,,,,,,,,0,1,Maison,95,5,S,sols,,,840,55.715333,-21.045406
2019-1494389,2019-02-11,000001,Vente,380000,131,,CHE FINETTE,0535,97490,97411,Saint-Denis,974,,,97411000HI0001,,,,,,,,,,,,,0,1,Maison,211,6,S,sols,,,951,55.473399,-20.907078
2019-1494390,2019-01-25,000001,Vente,95000,369,,CD 41,0100,97419,97408,La Possession,974,,,97408000AC1407,,,4,71.29,,,,,,,,,1,2,Appartement,67,3,,,,,,55.369732,-20.924589
2019-1494390,2019-01-25,000001,Vente,95000,1,,CHE DE LA FERME AVICOLE,0194,97419,97408,La Possession,974,,,97408000AC1407,,,147,,,,,,,,,,1,3,Dépendance,,0,,,,,,55.369732,-20.924589
2019-1494391,2019-02-04,000001,Vente,168000,145,,CHE DE LA POUDRIERE,1203,97460,97415,Saint-Paul,974,,,97415000BV1155,,,22,66.2,,,,,,,,,1,2,Appartement,67,3,,,,,,55.285998,-21.018027
2019-1494391,2019-02-04,000001,Vente,168000,145,,CHE DE LA POUDRIERE,1203,97460,97415,Saint-Paul,974,,,97415000BV1155,,,51,,,,,,,,,,1,3,Dépendance,,0,,,,,,55.285998,-21.018027
2019-1494392,2019-01-29,000001,Vente,229000,514,,RUE CHARLES BAUDELAIRE,0462,97440,97409,Saint-André,974,,,97409000AK1012,,,,,,,,,,,,,0,1,Maison,105,4,S,sols,,,502,55.663123,-20.941252
2019-1494393,2019-01-22,000001,Vente,55319,30,,ALL DES TULIPES,1413,97490,97411,Saint-Denis,974,,,97411000HP0300,,,,,,,,,,,,,0,1,Maison,35,2,S,sols,,,165,55.485158,-20.915297
2019-1494394,2019-01-18,000001,Vente,5500,,,ZAC ST GILLES,B903,97434,97415,Saint-Paul,974,,,97415000DH0170,,,90,,,,,,,,,,1,3,Dépendance,,0,,,,,,55.221795,-21.073741
2019-1494395,2019-01-17,000001,Vente,5500,,,ZAC ST GILLES,B903,97434,97415,Saint-Paul,974,,,97415000DH0170,,,109,,,,,,,,,,1,3,Dépendance,,0,,,,,,55.221795,-21.073741
2019-1494396,2019-01-07,000001,Vente,148317,58,,AV DE LA GRANDE OURSE,1746,97434,97415,Saint-Paul,974,,,97415000DE1207,,,46,,,,,,,,,,1,3,Dépendance,,0,,,,,,55.2274,-21.063696
2019-1494396,2019-01-07,000001,Vente,148317,62,,AV DU CAPRICORNE,1744,97434,97415,Saint-Paul,974,,,97415000DE1207,,,9,45.4,,,,,,,,,1,2,Appartement,45,2,,,,,,55.2274,-21.063696
2019-1494397,2019-01-24,000001,Vente,190000,97,B,CHE DE GRAND  CANAL,0593,97490,97411,Saint-Denis,974,,,97411000HW0407,,,13,68.23,,,,,,,,,1,2,Appartement,69,4,,,,,,55.496997,-20.911089
2019-1494397,2019-01-24,000001,Vente,190000,97,B,CHE DE GRAND  CANAL,0593,97490,97411,Saint-Denis,974,,,97411000HW0407,,,29,,,,,,,,,,1,3,Dépendance,,0,,,,,,55.496997,-20.911089
2019-1494397,2019-01-24,000001,Vente,190000,97,B,CHE DE GRAND  CANAL,0593,97490,97411,Saint-Denis,974,,,97411000HW0407,,,28,,,,,,,,,,1,3,Dépendance,,0,,,,,,55.496997,-20.911089
2019-1494398,2019-01-22,000001,Vente,86000,5002,,RUE LAURENT DAMOUR,0661,97441,97420,Sainte-Suzanne,974,,,97420000BH1966,,,,,,,,,,,,,0,,,,,T,terres,,,379,55.620134,-20.953752
2019-1494399,2019-02-05,000001,Vente,50000,11,,CHE ZITTO,0451,97470,97410,Saint-Benoît,974,,,97410000AT0290,,,,,,,,,,,,,0,1,Maison,60,3,S,sols,,,246,55.701415,-21.05045
2019-1494400,2019-01-23,000001,Vente,150000,86,,CHE DU BUTOR,0360,97440,97409,Saint-André,974,,,97409000BH0474,,,,,,,,,,,,,0,1,Maison,131,4,S,sols,,,386,55.645375,-20.976324
2019-1494401,2019-01-28,000001,Vente,295000,492,,CHE DE LA SOURCE        MOUFIA,1355,97490,97411,Saint-Denis,974,,,97411000KB0020,,,3,95.18,,,,,,,,,1,1,Maison,94,4,,,,,,55.494642,-20.935303
2019-1494402,2019-01-25,000001,Vente,180000,9,,RUE DE LA DIGUE,0428,97400,97411,Saint-Denis,974,,,97411000AK0096,,,38,93.1,,,,,,,,,1,2,Appartement,97,5,,,,,,55.446297,-20.884526
2019-1494403,2019-01-23,000002,Vente,21200,3,,RUE DE LANGLARD,0237,97438,97418,Sainte-Marie,974,,,97418000AW0785,,,,,,,,,,,,,0,,,,,S,sols,,,115,55.509664,-20.910166
2019-1494404,2019-01-25,000001,Vente,64000,56,,AV EUDOXIE NONGE,0516,97490,97411,Saint-Denis,974,,,97411000BK0335,,,166,39.8,,,,,,,,,1,2,Appartement,39,2,,,,,,55.495226,-20.899
2019-1494404,2019-01-25,000001,Vente,64000,56,,AV EUDOXIE NONGE,0516,97490,97411,Saint-Denis,974,,,97411000BK0335,,,97,,,,,,,,,,1,3,Dépendance,,0,,,,,,55.495226,-20.899
2019-1494405,2019-01-25,000001,Vente,42500,32,,RUE DE LA BOURGOGNE,0226,97490,97411,Saint-Denis,974,,,97411000HM0152,,,1045,,,,,,,,,,1,3,Dépendance,,0,,,,,,55.485451,-20.90867
2019-1494405,2019-01-25,000001,Vente,42500,32,,RUE DE LA BOURGOGNE,0226,97490,97411,Saint-Denis,974,,,97411000HM0152,,,45,22.33,,,,,,,,,1,2,Appartement,22,1,,,,,,55.485451,-20.90867
2019-1494406,2019-01-18,000001,Vente,5500,,,ZAC ST GILLES,B903,97434,97415,Saint-Paul,974,,,97415000DH0170,,,81,,,,,,,,,,1,3,Dépendance,,0,,,,,,55.221795,-21.073741
2019-1494407,2019-01-29,000001,Vente,125000,28,,IMP YLANG YLANG,1658,97460,97415,Saint-Paul,974,,,97415000AD0235,,,5,31.79,,,,,,,,,1,2,Appartement,32,1,,,,,,55.303305,-20.975281
2019-1494407,2019-01-29,000001,Vente,125000,28,,IMP YLANG YLANG,1658,97460,97415,Saint-Paul,974,,,97415000AD0235,,,20,,,,,,,,,,1,3,Dépendance,,0,,,,,,55.303305,-20.975281
2019-1494408,2019-01-18,000001,Vente terrain à bâtir,140000,1,,IMP MOURONGUE,0569,97419,97408,La Possession,974,,,97408000AB0303,,,,,,,,,,,,,0,,,,,AB,terrains a bâtir,,,468,55.376833,-20.925554
2019-1494408,2019-01-18,000001,Vente terrain à bâtir,140000,1,,IMP MOURONGUE,0569,97419,97408,La Possession,974,,,97408000AB0334,,,,,,,,,,,,,0,,,,,S,sols,,,38,55.376658,-20.925641
2019-1494409,2019-02-11,000001,Vente,190000,6,,CHE TAMARIN SARDA,0365,97419,97408,La Possession,974,,,97408000BK0352,,,,,,,,,,,,,0,1,Maison,96,5,S,sols,,,867,55.347874,-20.926159
2019-1494410,2019-01-17,000001,Vente,118000,31,,RUE DU GRAND HOTEL,0725,97434,97415,Saint-Paul,974,,,97415000CX0550,,,6,34.75,,,,,,,,,1,2,Appartement,41,2,,,,,,55.231328,-21.032158
2019-1494410,2019-01-17,000001,Vente,118000,,,RUE DU GRAND HOTEL,0725,97434,97415,Saint-Paul,974,,,97415000CX0550,,,128,12,,,,,,,,,1,3,Dépendance,,0,,,,,,55.231328,-21.032158
2019-1494411,2019-01-22,000001,Vente,400000,6,,RUE DE LA VOIE LACTEE,0394,97419,97408,La Possession,974,,,97408000AN1286,,,,,,,,,,,,,0,4,Local industriel. commercial ou assimilé,,0,AB,terrains a bâtir,,,1501,55.334721,-20.940435
2019-1494411,2019-01-22,000001,Vente,400000,,,RAVINE A MARQUET BOEUF MOR,B282,97419,97408,La Possession,974,,,97408000AN1347,,,,,,,,,,,,,0,,,,,S,sols,,,9802,55.335629,-20.941148
2019-1494411,2019-01-22,000001,Vente,400000,6,,RUE DES CONSTELLATIONS,0134,97419,97408,La Possession,974,,,97408000AN1373,,,,,,,,,,,,,0,1,Maison,150,6,S,sols,,,378,55.337443,-20.941404
2019-1494411,2019-01-22,000001,Vente,400000,,,RAVINE A MARQUET BOEUF MOR,B282,97419,97408,La Possession,974,,,97408000AN1378,,,,,,,,,,,,,0,,,,,T,terres,,,153,55.337449,-20.94127
2019-1494412,2019-01-18,000001,Vente,118000,8,,ALL DES SPINELLES,1362,97400,97411,Saint-Denis,974,,,97411000DH0099,,,16,,,,,,,,,,1,3,Dépendance,,0,,,,,,55.44694,-20.898124
2019-1494412,2019-01-18,000001,Vente,118000,8,,ALL DES SPINELLES,1362,97400,97411,Saint-Denis,974,,,97411000DH0099,,,26,48.59,,,,,,,,,1,2,Appartement,47,2,,,,,,55.44694,-20.898124
2019-1494413,2019-01-18,000001,Vente,433000,2,,CHE DES POMMIERS,1161,97411,97415,Saint-Paul,974,,,97415000AY0410,,,,,,,,,,,,,0,1,Maison,149,4,S,sols,,,910,55.321764,-20.985292
2019-1494414,2019-01-18,000001,Vente,80000,105,,RTE DE BOIS DE NEFLES,0211,97490,97411,Saint-Denis,974,,,97411000AW0133,,,48,12,,,,,,,,,1,3,Dépendance,,0,,,,,,55.475693,-20.899271
2019-1494414,2019-01-18,000001,Vente,80000,107,,RTE DE BOIS DE NEFLES,0211,97490,97411,Saint-Denis,974,,,97411000AW0133,,,94,56.58,,,,,,,,,1,2,Appartement,55,3,,,,,,55.475693,-20.899271
2019-1494415,2019-01-22,000002,Vente,186830,36,,CHE DES LATANIERS,0850,97422,97415,Saint-Paul,974,,,97415000ES0811,,,,,,,,,,,,,0,1,Maison,150,3,S,sols,,,1099,55.27713,-21.095068
2019-1494416,2019-01-18,000001,Vente,84000,23,,IMP PENDULAS,1800,97411,97415,Saint-Paul,974,,,97415000AX0832,,,118,12,,,,,,,,,1,3,Dépendance,,0,,,,,,55.322209,-20.978925
2019-1494416,2019-01-18,000001,Vente,84000,27,,IMP PENDULAS,1800,97411,97415,Saint-Paul,974,,,97415000AX0832,,,97,36.7,,,,,,,,,1,2,Appartement,36,2,,,,,,55.322209,-20.978925
2019-1494417,2019-01-18,000001,Vente,108000,,,ALL DES AIGRETTES,0025,97434,97415,Saint-Paul,974,,,97415000HM0081,,,131,,,,,,,,,,1,3,Dépendance,,0,,,,,,55.229898,-21.050823
2019-1494417,2019-01-18,000001,Vente,108000,6,,ALL DES AIGRETTES,0025,97434,97415,Saint-Paul,974,,,97415000HM0081,,,38,29.99,,,,,,,,,1,2,Appartement,29,1,,,,,,55.229898,-21.050823
2019-1494418,2019-01-17,000001,Vente,285000,,,K RINOAL,B475,97460,97415,Saint-Paul,974,,,97415000CK0681,,,,,,,,,,,,,0,,,,,T,terres,,,1144,55.291014,-21.023022
2019-1494419,2019-02-13,000001,Vente,150000,,,VILLAGE DU BRULE,B194,97400,97411,Saint-Denis,974,,,97411000CM0586,,,,,,,,,,,,,0,,,,,T,terres,,,2739,55.436269,-20.925336
2019-1494420,2019-01-22,000001,Vente,419973.62,59,B,CHE DES FLEURS,0624,97423,97415,Saint-Paul,974,,,97415000CM2102,,,,,,,,,,,,,0,1,Maison,147,4,S,sols,,,679,55.291475,-21.035201
2019-1494420,2019-01-22,000001,Vente,419973.62,59,B,CHE DES FLEURS,0624,97423,97415,Saint-Paul,974,,,97415000CM2102,,,,,,,,,,,,,0,4,Local industriel. commercial ou assimilé,11,0,S,sols,,,679,55.291475,-21.035201
2019-1494421,2019-01-28,000001,Vente,181440,59,,CHE DES PECHERS,1094,97490,97411,Saint-Denis,974,,,97411000HH0315,,,96,,,,,,,,,,1,3,Dépendance,,0,,,,,,55.477467,-20.912049
2019-1494421,2019-01-28,000001,Vente,181440,,,CHE DES PECHERS,1094,97490,97411,Saint-Denis,974,,,97411000HH0315,,,34,103.51,,,,,,,,,1,2,Appartement,97,4,,,,,,55.477467,-20.912049
2019-1494422,2019-02-13,000001,Vente,45500,8,B,RUE THERESIEN CADET      MFIA,1408,97490,97411,Saint-Denis,974,,,97411000HM0210,,,96,,,,,,,,,,1,3,Dépendance,,0,,,,,,55.480059,-20.907698
2019-1494422,2019-02-13,000001,Vente,45500,8,B,RUE THERESIEN CADET      MFIA,1408,97490,97411,Saint-Denis,974,,,97411000HM0210,,,5,32.82,,,,,,,,,1,2,Appartement,31,1,,,,,,55.480059,-20.907698
2019-1494423,2019-01-18,000002,Vente,113000,,,CHE FINETTE,0535,97490,97411,Saint-Denis,974,,,97411000HE0066,,,,,,,,,,,,,0,,,,,T,terres,,,485,55.471217,-20.911106
2019-1494423,2019-01-18,000002,Vente,113000,202,T,CHE FINETTE,0535,97490,97411,Saint-Denis,974,,,97411000HE0520,,,,,,,,,,,,,0,,,,,T,terres,,,336,55.471351,-20.911596
2019-1494424,2019-01-30,000001,Vente,118350,2,,RUE LEON DIERX,0758,97400,97411,Saint-Denis,974,,,97411000AS0320,,,20,52.44,,,,,,,,,1,2,Appartement,53,3,,,,,,55.457224,-20.889232
2019-1494425,2019-01-18,000001,Vente,113000,,,CHE FINETTE,0535,97490,97411,Saint-Denis,974,,,97411000HE0066,,,,,,,,,,,,,0,,,,,T,terres,,,485,55.471217,-20.911106
2019-1494425,2019-01-18,000001,Vente,113000,202,T,CHE FINETTE,0535,97490,97411,Saint-Denis,974,,,97411000HE0519,,,,,,,,,,,,,0,,,,,T,terres,,,336,55.471333,-20.911391
2019-1494426,2019-01-31,000001,Vente,150000,,,BOIS ROUGE SUD,B070,97438,97418,Sainte-Marie,974,,,97418000AP4047,,,,,,,,,,,,,0,,,,,B,bois,,,433,55.527947,-20.926314
2019-1494426,2019-01-31,000001,Vente,150000,,,BOIS ROUGE SUD,B070,97438,97418,Sainte-Marie,974,,,97418000AP4053,,,,,,,,,,,,,0,,,,,B,bois,,,2119,55.528103,-20.926228
2019-1494427,2019-01-31,000002,Vente,93000,3,,RLE HERVE FAYE,0781,97420,97407,Le Port,974,,,97407000AE0763,,,,,,,,,,,,,0,,,,,AB,terrains a bâtir,,,68,55.290469,-20.939735
2019-1494427,2019-01-31,000002,Vente,93000,1,,RLE HERVE FAYE,0781,97420,97407,Le Port,974,,,97407000AE0771,,,,,,,,,,,,,0,,,,,AB,terrains a bâtir,,,212,55.290497,-20.939832
2019-1494428,2019-01-30,000001,Vente,110000,66,,RUE DES MIMOSAS,0350,97431,97406,La Plaine-des-Palmistes,974,,,97406000AM0162,,,,,,,,,,,,,0,1,Maison,50,3,S,sols,,,615,55.619012,-21.13689
2019-1494428,2019-01-30,000001,Vente,110000,5040,B,RUE DES MIMOSAS,0350,97431,97406,La Plaine-des-Palmistes,974,,,97406000AM0163,,,,,,,,,,,,,0,,,,,S,sols,,,625,55.619133,-21.136999
2019-1494429,2019-01-29,000001,Vente,48500,45,,AV LECONTE DE LISLE,0756,97490,97411,Saint-Denis,974,,,97411000BE0460,,,929,32.44,,,,,,,,,1,2,Appartement,32,1,,,,,,55.484059,-20.892319
2019-1494429,2019-01-29,000001,Vente,48500,45,,AV LECONTE DE LISLE,0756,97490,97411,Saint-Denis,974,,,97411000BE0460,,,128,,,,,,,,,,1,3,Dépendance,,0,,,,,,55.484059,-20.892319
2019-1494430,2019-01-17,000001,Vente,100000,71,,RUE TESSAN,1391,97490,97411,Saint-Denis,974,,,97411000BH0361,,,39,,,,,,,,,,1,3,Dépendance,,0,,,,,,55.47873,-20.896394
2019-1494430,2019-01-17,000001,Vente,100000,71,,RUE TESSAN,1391,97490,97411,Saint-Denis,974,,,97411000BH0361,,,100,,,,,,,,,,1,2,Appartement,56,3,,,,,,55.47873,-20.896394
2019-1494431,2019-01-21,000001,Vente,213000,37,,AV MAHATMA GANDHI,0696,97441,97420,Sainte-Suzanne,974,,,97420000AZ0762,,,,,,,,,,,,,0,,,,,S,sols,,,64,55.634699,-20.927492
2019-1494431,2019-01-21,000001,Vente,213000,6,,ALL DES ROSEAUX,0772,97441,97420,Sainte-Suzanne,974,,,97420000AZ0770,,,,,,,,,,,,,0,1,Maison,126,4,S,sols,,,377,55.634848,-20.9275
2019-1494432,2019-01-24,000001,Vente,78000,,,CAVERNE DES FEES,B084,97431,97406,La Plaine-des-Palmistes,974,,,97406000AW0618,,,,,,,,,,,,,0,,,,,PA,pâtures,,,753,55.623974,-21.161025
2019-1494433,2019-01-25,000001,Vente terrain à bâtir,178694,9007,,CHE DES MORTS,1015,97411,97415,Saint-Paul,974,,,97415000AY1265,,,,,,,,,,,,,0,,,,,AB,terrains a bâtir,,,382,55.318762,-20.98241
2019-1494434,2019-01-16,000001,Vente,135000,13,,RUE DES DIAMANTS,0966,97470,97410,Saint-Benoît,974,,,97410000BD0631,,,,,,,,,,,,,0,1,Maison,65,4,S,sols,,,296,55.700666,-21.05826
2019-1494435,2019-01-30,000001,Vente,128000,,,BRAS PITON,B049,97431,97406,La Plaine-des-Palmistes,974,,,97406000AW0936,,,,,,,,,,,,,0,,,,,PA,pâtures,,,1541,55.63249,-21.148304
2019-1494436,2019-02-15,000001,Vente,148000,,,CHE SUMMER N 1 (ST G LES BNS),1404,97434,97415,Saint-Paul,974,,,97415000CZ0573,,,37,41.34,,,,,,,,,1,2,Appartement,41,2,,,,,,55.225446,-21.047506
2019-1494436,2019-02-15,000001,Vente,148000,,,CHE SUMMER N 1 (ST G LES BNS),1404,97434,97415,Saint-Paul,974,,,97415000CZ0573,,,90,,,,,,,,,,1,3,Dépendance,,0,,,,,,55.225446,-21.047506
2019-1494437,2019-01-25,000001,Vente,110000,123,A,RUE DES DEUX CANONS,0421,97490,97411,Saint-Denis,974,,,97411000AW0883,,,37,15,,,,,,,,,1,3,Dépendance,,0,,,,,,55.474174,-20.893813
2019-1494437,2019-01-25,000001,Vente,110000,123,,RUE DES DEUX CANONS,0421,97490,97411,Saint-Denis,974,,,97411000AW0883,,,12,52.63,,,,,,,,,1,2,Appartement,53,3,,,,,,55.474174,-20.893813
2019-1494438,2019-01-17,000001,Vente,48500,6,,RUE DES BECS ROSES,0052,97412,97402,Bras-Panon,974,,,97402000AI0540,,,54,,,,,,,,,,1,3,Dépendance,,0,,,,,,55.681461,-20.99673
2019-1494438,2019-01-17,000001,Vente,48500,4,,RUE DES BECS ROSES,0052,97412,97402,Bras-Panon,974,,,97402000AI0540,,,14,46.53,,,,,,,,,1,2,Appartement,47,2,,,,,,55.681461,-20.99673
2019-1494439,2019-01-17,000001,Vente,210000,14,B,RUE ALEXIS DE VILLENEUVE,0040,97400,97411,Saint-Denis,974,,,97411000AE0019,,,2,74.64,,,,,,,,,1,2,Appartement,74,3,,,,,,55.448945,-20.877447
2019-1494439,2019-01-17,000001,Vente,210000,14,B,RUE ALEXIS DE VILLENEUVE,0040,97400,97411,Saint-Denis,974,,,97411000AE0019,,,8,,,,,,,,,,1,3,Dépendance,,0,,,,,,55.448945,-20.877447
2019-1494440,2019-01-18,000001,Vente,23232,43,,CHE BRAS CANOT,0100,97470,97410,Saint-Benoît,974,,,97410000AS1371,,,,,,,,,,,,,0,,,,,S,sols,,,128,55.712402,-21.044661
2019-1494441,2019-01-29,000001,Vente,270000,161,,RUE DU GAL DE GAULLE,0570,97400,97411,Saint-Denis,974,,,97411000AP0090,,,58,90.6,,,,,,,,,1,2,Appartement,90,4,,,,,,55.462314,-20.883947
2019-1494441,2019-01-29,000001,Vente,270000,161,,RUE DU GAL DE GAULLE,0570,97400,97411,Saint-Denis,974,,,97411000AP0090,,,16,,,,,,,,,,1,3,Dépendance,,0,,,,,,55.462314,-20.883947
2019-1494441,2019-01-29,000001,Vente,270000,161,,RUE DU GAL DE GAULLE,0570,97400,97411,Saint-Denis,974,,,97411000AP0090,,,86,,,,,,,,,,1,3,Dépendance,,0,,,,,,55.462314,-20.883947
2019-1494442,2019-01-28,000001,Vente,241300,,,RUE OMEGA,1854,97460,97415,Saint-Paul,974,,,97415000BI0498,,,83,,,,,,,,,,1,3,Dépendance,,0,,,,,,55.28509,-20.983718
2019-1494442,2019-01-28,000001,Vente,241300,17,,RUE OMEGA,1854,97460,97415,Saint-Paul,974,,,97415000BI0498,,,15,,,,,,,,,,1,3,Dépendance,,0,,,,,,55.28509,-20.983718
2019-1494442,2019-01-28,000001,Vente,241300,17,,RUE OMEGA,1854,97460,97415,Saint-Paul,974,,,97415000BI0498,,,1,91.2,,,,,,,,,1,2,Appartement,90,4,,,,,,55.28509,-20.983718
2019-1494443,2019-01-23,000001,Vente,272000,301,,CHE JEANSON,0960,97440,97409,Saint-André,974,,,97409000AZ0702,,,,,,,,,,,,,0,1,Maison,91,4,T,terres,,,726,55.682808,-20.975915
2019-1494444,2019-01-25,000001,Vente,112000,47,,RUE DES FORBANS,0466,97438,97418,Sainte-Marie,974,,,97418000AS1109,,,,,,,,,,,,,0,1,Maison,95,4,S,sols,,,289,55.530812,-20.921323
2019-1494445,2019-01-25,000001,Vente,269000,33,,RUE FRERE SCUBILLON,0630,97441,97420,Sainte-Suzanne,974,,,97420000AZ0568,,,,,,,,,,,,,0,1,Maison,91,4,AB,terrains a bâtir,,,502,55.637577,-20.932532
2019-1494446,2019-01-25,000001,Vente,980000,6,,RUE DU MAINE,0806,97490,97411,Saint-Denis,974,,,97411000HT0033,,,,,,,,,,,,,0,4,Local industriel. commercial ou assimilé,230,0,S,sols,,,619,55.491373,-20.902824
2019-1494446,2019-01-25,000001,Vente,980000,6,,RUE DU MAINE,0806,97490,97411,Saint-Denis,974,,,97411000HT0033,,,,,,,,,,,,,0,4,Local industriel. commercial ou assimilé,250,0,S,sols,,,619,55.491373,-20.902824
2019-1494446,2019-01-25,000001,Vente,980000,6,,RUE DU MAINE,0806,97490,97411,Saint-Denis,974,,,97411000HT0033,,,,,,,,,,,,,0,4,Local industriel. commercial ou assimilé,250,0,S,sols,,,619,55.491373,-20.902824
2019-1494447,2019-01-25,000001,Vente,300000,876,,CHE ETANG,0720,97440,97409,Saint-André,974,,,97409000AB0864,,,,,,,,,,,,,0,1,Maison,259,5,T,terres,,,744,55.657805,-20.926035
2019-1494448,2019-01-30,000001,Vente,260000,8,,CHE DECOTTE,0401,97417,97411,Saint-Denis,974,,,97411000BZ1488,,,,,,,,,,,,,0,1,Maison,95,5,S,sols,,,880,55.426814,-20.890881
2019-1494449,2019-01-24,000001,Vente,51000,40,,CHE DU PITON TRESOR,1115,97417,97411,Saint-Denis,974,,,97411000DT0075,,,145,36.17,,,,,,,,,1,2,Appartement,36,1,,,,,,55.430845,-20.89621
2019-1494449,2019-01-24,000001,Vente,51000,38,,CHE DU PITON TRESOR,1115,97417,97411,Saint-Denis,974,,,97411000DT0075,,,360,,,,,,,,,,1,3,Dépendance,,0,,,,,,55.430845,-20.89621
2019-1494450,2019-01-24,000001,Vente,200000,159,,RUE DU GAL DE GAULLE,0570,97400,97411,Saint-Denis,974,,,97411000AP0091,,,28,69.03,,,,,,,,,1,2,Appartement,69,3,,,,,,55.461996,-20.883836
2019-1494450,2019-01-24,000001,Vente,200000,159,,RUE DU GAL DE GAULLE,0570,97400,97411,Saint-Denis,974,,,97411000AP0091,,,50,14.26,,,,,,,,,1,3,Dépendance,,0,,,,,,55.461996,-20.883836
2019-1494450,2019-01-24,000001,Vente,200000,159,,RUE DU GAL DE GAULLE,0570,97400,97411,Saint-Denis,974,,,97411000AP0091,,,76,12.5,,,,,,,,,1,3,Dépendance,,0,,,,,,55.461996,-20.883836
2019-1494451,2019-01-18,000001,Vente,120000,135,,AV H DELISLE,0415,97400,97411,Saint-Denis,974,,,97411000AT0413,,,454,115.06,,,,,,,,,1,1,Maison,110,6,,,,,,55.452394,-20.891276
2019-1494452,2019-01-24,000001,Vente,33000,69,,RTE DE BOIS DE NEFLES,0211,97490,97411,Saint-Denis,974,,,97411000AW0079,,,25,21.19,,,,,,,,,1,2,Appartement,20,1,,,,,,55.477289,-20.896817
2019-1494452,2019-01-24,000001,Vente,33000,69,,RTE DE BOIS DE NEFLES,0211,97490,97411,Saint-Denis,974,,,97411000AW0079,,,65,,,,,,,,,,1,3,Dépendance,,0,,,,,,55.477289,-20.896817
2019-1494453,2019-01-18,000001,Vente,65000,43,,LOT COTUR 1,A080,97470,97410,Saint-Benoît,974,,,97410000AR0214,,,,,,,,,,,,,0,1,Maison,72,4,S,sols,,,513,55.719088,-21.046588
2019-1494454,2019-01-17,000001,Vente,12500,89,,AV DE LA GRANDE OURSE,1746,97434,97415,Saint-Paul,974,,,97415000DE0667,,,66,,,,,,,,,,1,3,Dépendance,,0,,,,,,55.227928,-21.062382
2019-1494455,2019-01-28,000001,Vente,239000,34,T,CHE FRANCOISE,1611,97411,97415,Saint-Paul,974,,,97415000AS0937,,,,,,,,,,,,,0,1,Maison,81,3,S,sols,,,489,55.331297,-20.99842
2019-1494456,2019-01-22,000001,Vente,98046,,,LA CONFIANCE HABITAT,B410,97470,97410,Saint-Benoît,974,,,97410000BE1015,,,,,,,,,,,,,0,,,,,T,terres,,,419,55.701517,-21.069408
2019-1494457,2019-01-28,000001,Vente,105000,42,,RUE PAUL LOUIS LEMERLE,0516,97438,97418,Sainte-Marie,974,,,97418000AW0756,,,,,,,,,,,,,0,1,Maison,120,4,S,sols,,,245,55.518721,-20.908016
2019-1494458,2019-01-30,000001,Vente,210000,1205,,RTE DE SALAZIE,1750,97440,97409,Saint-André,974,,,97409000BO0599,,,,,,,,,,,,,0,1,Maison,110,5,S,sols,,,558,55.628312,-20.983588
2019-1494459,2019-01-21,000001,Vente,128000,66,,RUE MONTFLEURY,0760,97470,97410,Saint-Benoît,974,,,97410000AK0710,,,,,,,,,,,,,0,1,Maison,70,3,S,sols,,,227,55.710365,-21.033516
2019-1494460,2019-01-25,000001,Vente,80000,128,,ALL DES TOPAZES,1397,97400,97411,Saint-Denis,974,,,97411000EM0172,,,88,,,,,,,,,,1,3,Dépendance,,0,,,,,,55.443324,-20.898746
2019-1494460,2019-01-25,000001,Vente,80000,128,,ALL DES TOPAZES,1397,97400,97411,Saint-Denis,974,,,97411000EM0172,,,154,28.81,,,,,,,,,1,2,Appartement,20,1,,,,,,55.443324,-20.898746
2019-1494461,2019-01-30,000001,Vente,470000,38,B,CHE DES ACAJOUS,0013,97490,97411,Saint-Denis,974,,,97411000HC0098,,,,,,,,,,,,,0,1,Maison,36,3,S,sols,,,1139,55.474973,-20.904691
2019-1494461,2019-01-30,000001,Vente,470000,38,B,CHE DES ACAJOUS,0013,97490,97411,Saint-Denis,974,,,97411000HC0098,,,,,,,,,,,,,0,1,Maison,126,5,S,sols,,,1139,55.474973,-20.904691
2019-1494462,2019-01-29,000001,Vente,430000,24,,RUE MGR DE BEAUMONT,0920,97400,97411,Saint-Denis,974,,,97411000AM0347,,,48,,,,,,,,,,1,3,Dépendance,,0,,,,,,55.456108,-20.883626
2019-1494462,2019-01-29,000001,Vente,430000,24,,RUE MGR DE BEAUMONT,0920,97400,97411,Saint-Denis,974,,,97411000AM0347,,,46,,,,,,,,,,1,3,Dépendance,,0,,,,,,55.456108,-20.883626
2019-1494462,2019-01-29,000001,Vente,430000,24,,RUE MGR DE BEAUMONT,0920,97400,97411,Saint-Denis,974,,,97411000AM0347,,,47,,,,,,,,,,1,3,Dépendance,,0,,,,,,55.456108,-20.883626
2019-1494462,2019-01-29,000001,Vente,430000,24,,RUE MGR DE BEAUMONT,0920,97400,97411,Saint-Denis,974,,,97411000AM0347,,,1,151.94,,,,,,,,,1,4,Local industriel. commercial ou assimilé,120,0,,,,,,55.456108,-20.883626
2019-1494463,2019-01-25,000001,Vente terrain à bâtir,148300,9007,,CHE DES MORTS,1015,97411,97415,Saint-Paul,974,,,97415000AY1284,,,,,,,,,,,,,0,,,,,AB,terrains a bâtir,,,323,55.318024,-20.982494
2019-1494464,2019-02-01,000001,Vente terrain à bâtir,68834,,,ST GILLES LES BAINS,B744,97434,97415,Saint-Paul,974,,,97415000DE1221,,,,,,,,,,,,,0,,,,,AB,terrains a bâtir,,,237,55.231328,-21.059499
2019-1494465,2019-01-29,000001,Vente,90000,55,,CHE COMMINS,0359,97417,97411,Saint-Denis,974,,,97411000EL0460,,,59,37.93,,,,,,,,,1,2,Appartement,39,2,,,,,,55.407749,-20.890099
2019-1494465,2019-01-29,000001,Vente,90000,57,,CHE COMMINS,0359,97417,97411,Saint-Denis,974,,,97411000EL0460,,,203,,,,,,,,,,1,3,Dépendance,,0,,,,,,55.407749,-20.890099
2019-1494466,2019-01-28,000001,Vente,86000,18,,AV STANISLAS GIMART,1367,97490,97411,Saint-Denis,974,,,97411000AW0207,,,2,47.71,,,,,,,,,1,2,Appartement,47,3,,,,,,55.475113,-20.893167
2019-1494466,2019-01-28,000001,Vente,86000,18,,AV STANISLAS GIMART,1367,97490,97411,Saint-Denis,974,,,97411000AW0207,,,267,,,,,,,,,,1,3,Dépendance,,0,,,,,,55.475113,-20.893167
2019-1494467,2019-01-31,000001,Vente,140000,176,,CHE CHEVALIER,0340,97435,97415,Saint-Paul,974,,,97415000CP1853,,,,,,,,,,,,,0,1,Maison,192,8,S,sols,,,548,55.282644,-21.046082
2019-1494468,2019-01-31,000001,Vente,78000,43,,RUE PHILIBERT,1110,97400,97411,Saint-Denis,974,,,97411000AL0211,,,103,,,,,,,,,,1,3,Dépendance,,0,,,,,,55.447692,-20.887379
2019-1494468,2019-01-31,000001,Vente,78000,43,,RUE PHILIBERT,1110,97400,97411,Saint-Denis,974,,,97411000AL0211,,,15,,59,,,,,,,,2,2,Appartement,55,2,,,,,,55.447692,-20.887379
2019-1494469,2019-01-18,000001,Vente,68000,7,,RUE DES PANIERS,1055,97400,97411,Saint-Denis,974,,,97411000ES0152,,,126,27.58,,,,,,,,,1,2,Appartement,27,1,,,,,,55.458985,-20.898374
2019-1494469,2019-01-18,000001,Vente,68000,3,,RUE DES PANIERS,1055,97400,97411,Saint-Denis,974,,,97411000ES0152,,,178,,,,,,,,,,1,3,Dépendance,,0,,,,,,55.458985,-20.898374
2019-1494470,2019-02-05,000001,Vente,70000,2,,CHE BLEMIR   (STE ANNE),0050,97437,97410,Saint-Benoît,974,,,97410000BW0427,,,,,,,,,,,,,0,1,Maison,75,5,S,sols,,,236,55.738879,-21.08904
2019-1494471,2019-02-01,000001,Vente,70000,,,ST GILLES LES BAINS,B744,97434,97415,Saint-Paul,974,,,97415000DE1241,,,,,,,,,,,,,0,,,,,L,landes,,,218,55.230811,-21.062227
2019-1494472,2019-02-01,000001,Vente,78891,9,,RUE CHE GUEVARA,0089,97419,97408,La Possession,974,,,97408000AO0551,,,,,,,,,,,,,0,1,Maison,64,1,S,sols,,,297,55.331171,-20.947683
2019-1494473,2019-01-29,000002,Vente,49250,387,,CHE DUFOURG LES HAUTS,0442,97490,97411,Saint-Denis,974,,,97411000CX1801,,,,,,,,,,,,,0,,,,,S,sols,,,197,55.498204,-20.932208
2019-1494474,2019-02-05,000001,Vente,204000,25,,RUE PAUL LOUIS LEMERLE,0516,97438,97418,Sainte-Marie,974,,,97418000AW0723,,,,,,,,,,,,,0,1,Maison,148,5,S,sols,,,245,55.516861,-20.907413
2019-1494474,2019-02-05,000001,Vente,204000,,,GILLOT SUD,B185,97438,97418,Sainte-Marie,974,,,97418000AW0724,,,,,,,,,,,,,0,,,,,T,terres,,,243,55.516951,-20.907447
2019-1494475,2019-01-30,000001,Vente terrain à bâtir,83000,133,,CHE BRAS CANOT,0100,97470,97410,Saint-Benoît,974,,,97410000AT1097,,,,,,,,,,,,,0,,,,,AB,terrains a bâtir,,,304,55.704203,-21.050461
2019-1494476,2019-01-29,000001,Vente,80000,118,,CHE DE BOIS ROUGE,0197,97490,97411,Saint-Denis,974,,,97411000ID0002,,,1249,54.94,,,,,,,,,1,2,Appartement,55,3,,,,,,55.486633,-20.923917
2019-1494476,2019-01-29,000001,Vente,80000,118,,CHE DE BOIS ROUGE,0197,97490,97411,Saint-Denis,974,,,97411000ID0002,,,1086,,,,,,,,,,1,3,Dépendance,,0,,,,,,55.486633,-20.923917
2019-1494477,2019-02-04,000001,Vente,573500,15,,CHE DES CAPUCINES,1637,97460,97415,Saint-Paul,974,,,97415000CV0230,,,,,,,,,,,,,0,1,Maison,181,5,S,sols,,,1060,55.267526,-21.036226
2019-1494478,2019-02-08,000002,Vente,120000,2,,IMP UCELLO,0458,97420,97407,Le Port,974,,,97407000AX0092,,,,,,,,,,,,,0,4,Local industriel. commercial ou assimilé,900,0,,,,,,55.325776,-20.937492
2019-1494479,2019-02-06,000001,Vente,359100,9,,ALL DES AIGUES MARINES,0036,97400,97411,Saint-Denis,974,,,97411000DH0009,,,,,,,,,,,,,0,1,Maison,86,4,S,sols,,,250,55.441827,-20.894175
2019-1494480,2019-01-29,000001,Vente,385000,14,T,CHE DES ORANGERS,1032,97490,97411,Saint-Denis,974,,,97411000HO0522,,,,,,,,,,,,,0,1,Maison,85,3,S,sols,,,539,55.481725,-20.916076
2019-1494481,2019-01-30,000001,Vente,136000,,,BOIS ROUGE,B069,97438,97418,Sainte-Marie,974,,,97418000AS1104,,,,,,,,,,,,,0,,,,,T,terres,,,288,55.530778,-20.921703
2019-1494482,2019-01-29,000001,Vente,85000,,,LE CRATERE,B490,97470,97410,Saint-Benoît,974,,,97410000AW0950,,,,,,,,,,,,,0,,,,,T,terres,,,512,55.688199,-21.050031
2019-1494483,2019-02-01,000001,Vente,327600,16,,AV DE LA PALESTINE,0277,97419,97408,La Possession,974,,,97408000AP1267,,,42,,43,,44,,45,,7,156,5,4,Local industriel. commercial ou assimilé,156,0,,,,,,55.322732,-20.9606
2019-1494484,2019-02-04,000001,Vente,150000,21,,CHE DES BIBASSIERS,0182,97490,97411,Saint-Denis,974,,,97411000HO0122,,,59,,,,,,,,,,1,3,Dépendance,,0,,,,,,55.484231,-20.919277
2019-1494484,2019-02-04,000001,Vente,150000,21,,CHE DES BIBASSIERS,0182,97490,97411,Saint-Denis,974,,,97411000HO0122,,,7,72.17,,,,,,,,,1,2,Appartement,73,3,,,,,,55.484231,-20.919277
2019-1494485,2019-01-29,000001,Vente,207900,302,,RUE DU MARECHAL LECLERC,0840,97400,97411,Saint-Denis,974,,,97411000AP0107,,,,,,,,,,,,,0,1,Maison,40,2,S,sols,,,143,55.462656,-20.883501
2019-1494486,2019-01-23,000001,Vente en l'état futur d'achèvement,630748,129,,RUE DU GEN DE GAULLE  (ST G),0659,97434,97415,Saint-Paul,974,,,97415000CZ1314,,,27,,,,,,,,,,1,2,Appartement,122,5,,,,,,55.227162,-21.051017
2019-1494486,2019-01-23,000001,Vente en l'état futur d'achèvement,630748,129,,RUE DU GEN DE GAULLE  (ST G),0659,97434,97415,Saint-Paul,974,,,97415000CZ1314,,,68,,,,,,,,,,1,3,Dépendance,,0,,,,,,55.227162,-21.051017
2019-1494486,2019-01-23,000001,Vente en l'état futur d'achèvement,630748,129,,RUE DU GEN DE GAULLE  (ST G),0659,97434,97415,Saint-Paul,974,,,97415000CZ1314,,,67,,,,,,,,,,1,3,Dépendance,,0,,,,,,55.227162,-21.051017
2019-1494487,2019-01-30,000001,Vente,145000,14,,CHE DU DISPENSAIRE,0433,97490,97411,Saint-Denis,974,,,97411000IH0483,,,,,,,,,,,,,0,1,Maison,54,3,S,sols,,,338,55.494348,-20.927459
2019-1494488,2019-02-15,000001,Vente,,5338,,N DE SAINT DENIS A ST PIERRE,0310,97438,97418,Sainte-Marie,974,,,97418000AC0623,,,,,,,,,,,,,0,,,,,S,sols,,,28,55.530696,-20.89493
2019-1494488,2019-02-15,000001,Vente,,5346,,N DE SAINT DENIS A ST PIERRE,0310,97438,97418,Sainte-Marie,974,,,97418000AC0625,,,,,,,,,,,,,0,,,,,S,sols,,,310,55.531001,-20.894302
2019-1494488,2019-02-15,000001,Vente,,5368,7,N DE SAINT DENIS A ST PIERRE,0310,97438,97418,Sainte-Marie,974,,,97418000AC0626,,,,,,,,,,,,,0,,,,,S,sols,,,113,55.531809,-20.89381
2019-1494488,2019-02-15,000001,Vente,,5368,6,N DE SAINT DENIS A ST PIERRE,0310,97438,97418,Sainte-Marie,974,,,97418000AC0628,,,,,,,,,,,,,0,,,,,S,sols,,,140,55.532016,-20.893856
2019-1494488,2019-02-15,000001,Vente,,5368,Q,N DE SAINT DENIS A ST PIERRE,0310,97438,97418,Sainte-Marie,974,,,97418000AC0629,,,,,,,,,,,,,0,,,,,S,sols,,,18,55.53228,-20.893719
2019-1494488,2019-02-15,000001,Vente,,,,LA MARE,B250,97438,97418,Sainte-Marie,974,,,97418000AC0631,,,,,,,,,,,,,0,,,,,T,terres,,,304,55.532175,-20.893759
2019-1494488,2019-02-15,000001,Vente,,2,,RUE ANDRE LARDY,0177,97438,97418,Sainte-Marie,974,,,97418000AC0636,,,,,,,,,,,,,0,,,,,S,sols,,,21,55.532338,-20.893684
2019-1494488,2019-02-15,000001,Vente,,5346,Q,N DE SAINT DENIS A ST PIERRE,0310,97438,97418,Sainte-Marie,974,,,97418000AC0668,,,,,,,,,,,,,0,,,,,S,sols,,,266,55.531583,-20.893766
2019-1494488,2019-02-15,000001,Vente,,5346,B,N DE SAINT DENIS A ST PIERRE,0310,97438,97418,Sainte-Marie,974,,,97418000AC0809,,,,,,,,,,,,,0,,,,,S,sols,,,713,55.531122,-20.894226
2019-1494488,2019-02-15,000001,Vente,,5346,B,N DE SAINT DENIS A ST PIERRE,0310,97438,97418,Sainte-Marie,974,,,97418000AC0810,,,,,,,,,,,,,0,,,,,S,sols,,,342,55.531805,-20.893876
2019-1494488,2019-02-15,000001,Vente,,5346,T,N DE SAINT DENIS A ST PIERRE,0310,97438,97418,Sainte-Marie,974,,,97418000AC0811,,,,,,,,,,,,,0,,,,,S,sols,,,383,55.531464,-20.893868
2019-1494488,2019-02-15,000001,Vente,,5370,5,N DE SAINT DENIS A ST PIERRE,0310,97438,97418,Sainte-Marie,974,,,97418000AC0813,,,,,,,,,,,,,0,,,,,S,sols,,,83,55.532037,-20.89389
2019-1494488,2019-02-15,000001,Vente,,5618,,N DE SAINT DENIS A ST PIERRE,0310,97438,97418,Sainte-Marie,974,,,97418000AE0261,,,,,,,,,,,,,0,,,,,S,sols,,,250,55.552963,-20.895617
2019-1494488,2019-02-15,000001,Vente,,5351,,N DE SAINT DENIS A ST PIERRE,0310,97438,97418,Sainte-Marie,974,,,97418000AZ0225,,,,,,,,,,,,,0,,,,,T,terres,,,2059,55.53098,-20.893652
2019-1494488,2019-02-15,000001,Vente,,5333,,N DE SAINT DENIS A ST PIERRE,0310,97438,97418,Sainte-Marie,974,,,97418000AZ0249,,,,,,,,,,,,,0,,,,,S,sols,,,268,55.530395,-20.894944
2019-1494488,2019-02-15,000001,Vente,,5343,,N DE SAINT DENIS A ST PIERRE,0310,97438,97418,Sainte-Marie,974,,,97418000AZ0251,,,,,,,,,,,,,0,,,,,S,sols,,,172,55.530851,-20.893423
2019-1494488,2019-02-15,000001,Vente,,5340,,N DE SAINT DENIS A ST PIERRE,0310,97438,97418,Sainte-Marie,974,,,97418000AZ0252,,,,,,,,,,,,,0,,,,,S,sols,,,585,55.53068,-20.894379
2019-1494488,2019-02-15,000001,Vente,,,,LA CONVENANCE,B240,97438,97418,Sainte-Marie,974,,,97418000BD0013,,,,,,,,,,,,,0,,,,,S,sols,,,742,55.559441,-20.897092
2019-1494488,2019-02-15,000001,Vente,,,,LA RESERVE,B280,97438,97418,Sainte-Marie,974,,,97418000BN0053,,,,,,,,,,,,,0,,,,,S,sols,,,265,55.559327,-20.897316
2019-1494488,2019-02-15,000001,Vente,,,,LA RESERVE,B280,97438,97418,Sainte-Marie,974,,,97418000BN0055,,,,,,,,,,,,,0,,,,,S,sols,,,40,55.5595,-20.897291
2019-1494488,2019-02-15,000001,Vente,,,,LA RESERVE,B280,97438,97418,Sainte-Marie,974,,,97418000BN0057,,,,,,,,,,,,,0,,,,,S,sols,,,373,55.559749,-20.89721
2019-1494488,2019-02-15,000001,Vente,,,,LA RESERVE,B280,97438,97418,Sainte-Marie,974,,,97418000BN0059,,,,,,,,,,,,,0,,,,,S,sols,,,1426,55.560666,-20.897043
2019-1494488,2019-02-15,000001,Vente,,,,LA RESERVE,B280,97438,97418,Sainte-Marie,974,,,97418000BN0061,,,,,,,,,,,,,0,,,,,S,sols,,,741,55.561679,-20.897063
2019-1494488,2019-02-15,000001,Vente,,5722,,N DE SAINT DENIS A ST PIERRE,0310,97438,97418,Sainte-Marie,974,,,97418000BN0063,,,,,,,,,,,,,0,,,,,S,sols,,,142,55.562276,-20.897137
2019-1494488,2019-02-15,000001,Vente,,,,LA RESERVE,B280,97438,97418,Sainte-Marie,974,,,97418000BN0065,,,,,,,,,,,,,0,,,,,S,sols,,,933,55.562981,-20.897196
2019-1494489,2019-01-31,000001,Vente,360000,9,,CHE DES FUCREAS        LA MTA,0662,97417,97411,Saint-Denis,974,,,97411000CD0754,,,,,,,,,,,,,0,1,Maison,106,3,S,sols,,,734,55.410331,-20.897372
2019-1494490,2019-01-31,000004,Echange,1000,,,CHE D'EAU  (FLEURIMONT),0469,97435,97415,Saint-Paul,974,,,97415000CR1146,,,,,,,,,,,,,0,1,Maison,60,3,,,,,,55.271106,-21.043737
2019-1494491,2019-01-28,000001,Vente,300000,90,,RTE DE FATIMA,0614,97435,97415,Saint-Paul,974,,,97415000CP1069,,,,,,,,,,,,,0,,,,,AB,terrains a bâtir,,,19,55.280161,-21.05044
2019-1494491,2019-01-28,000001,Vente,300000,90,T,RTE DE FATIMA,0614,97435,97415,Saint-Paul,974,,,97415000CP1070,,,,,,,,,,,,,0,1,Maison,79,3,S,sols,,,623,55.280207,-21.050569
2019-1494491,2019-01-28,000001,Vente,300000,90,,RTE DE FATIMA,0614,97435,97415,Saint-Paul,974,,,97415000CP1074,,,,,,,,,,,,,0,,,,,AB,terrains a bâtir,,,100,55.280932,-21.050727
2019-1494492,2019-01-23,000001,Vente,48400,6,,CD 41,0100,97419,97408,La Possession,974,,,97408000AC0555,,,299,,,,,,,,,,1,3,Dépendance,,0,,,,,,55.346192,-20.923668
2019-1494492,2019-01-23,000001,Vente,48400,6,,CD 41,0100,97419,97408,La Possession,974,,,97408000AC0555,,,36,27.54,,,,,,,,,1,2,Appartement,27,1,,,,,,55.346192,-20.923668
2019-1494493,2019-01-31,000001,Vente,100000,28,,CHE ROBERT,0487,97412,97402,Bras-Panon,974,,,97402000AH0448,,,,,,,,,,,,,0,1,Maison,74,4,S,sols,,,610,55.683443,-21.001865
2019-1494494,2019-01-25,000001,Vente,600000,32,,RUE COTE OUEST,0136,97419,97408,La Possession,974,,,97408000BK0236,,,,,,,,,,,,,0,1,Maison,150,5,S,sols,,,702,55.347554,-20.929834
2019-1494495,2019-01-24,000001,Vente,100000,84,,RTE DE TROIS BASSINS,1445,97435,97415,Saint-Paul,974,,,97415000CS0568,,,1,36.52,,,,,,,,,1,2,Appartement,38,2,,,,,,55.266856,-21.04988
2019-1494496,2019-01-25,000001,Vente,185000,,,AV DES MARTINS,0992,97460,97415,Saint-Paul,974,,,97415000EY1572,,,74,,,,,,,,,,1,3,Dépendance,,0,,,,,,55.266499,-21.026462
2019-1494496,2019-01-25,000001,Vente,185000,63,,AV DES MARTINS,0992,97460,97415,Saint-Paul,974,,,97415000EY1572,,,10,75.3,,,,,,,,,1,2,Appartement,73,4,,,,,,55.266499,-21.026462
2019-1494496,2019-01-25,000001,Vente,185000,,,AV DES MARTINS,0992,97460,97415,Saint-Paul,974,,,97415000EY1572,,,138,,,,,,,,,,1,3,Dépendance,,0,,,,,,55.266499,-21.026462
2019-1494497,2019-01-24,000001,Vente,255000,7,,RUE DES BONITES,0174,97434,97415,Saint-Paul,974,,,97415000HI0311,,,,,,,,,,,,,0,1,Maison,63,4,S,sols,,,345,55.232071,-21.057491
2019-1494498,2019-02-06,000001,Vente,295000,56,,RUE FENELON,0530,97400,97411,Saint-Denis,974,,,97411000AL0409,,,,,,,,,,,,,0,1,Maison,80,4,S,sols,,,294,55.447854,-20.887599
2019-1494499,2019-02-08,000001,Vente,1,62,,RUE MAHATMA GANDHI,0247,97419,97408,La Possession,974,,,97408000AO1090,,,,,,,,,,,,,0,,,,,AB,terrains a bâtir,,,93,55.327208,-20.948318
2019-1494499,2019-02-08,000001,Vente,1,62,B,RUE MAHATMA GANDHI,0247,97419,97408,La Possession,974,,,97408000AO1091,,,,,,,,,,,,,0,4,Local industriel. commercial ou assimilé,,0,AB,terrains a bâtir,,,166,55.32733,-20.948286
2019-1494499,2019-02-08,000001,Vente,1,30,,RUE DE HANOI,0440,97419,97408,La Possession,974,,,97408000AO1092,,,,,,,,,,,,,0,,,,,L,landes,,,36,55.327336,-20.94829
2019-1494499,2019-02-08,000001,Vente,1,62,,RUE MAHATMA GANDHI,0247,97419,97408,La Possession,974,,,97408000AO1095,,,,,,,,,,,,,0,4,Local industriel. commercial ou assimilé,,0,L,landes,,,3079,55.327728,-20.948237
2019-1494499,2019-02-08,000001,Vente,1,62,,RUE MAHATMA GANDHI,0247,97419,97408,La Possession,974,,,97408000AO1096,,,,,,,,,,,,,0,,,,,L,landes,,,1720,55.326987,-20.947948
2019-1494500,2019-02-06,000002,Vente,334000,33,B,RUE DES SAPOTES,1356,97411,97415,Saint-Paul,974,,,97415000AY1349,,,,,,,,,,,,,0,1,Maison,93,4,S,sols,,,691,55.322407,-20.987847
2019-1494501,2019-01-28,000001,Vente,350000,70,,RUE LEOPOLD RAMBAUD,0761,97490,97411,Saint-Denis,974,,,97411000AZ0007,,,,,,,,,,,,,0,4,Local industriel. commercial ou assimilé,274,0,S,sols,,,261,55.47516,-20.886655
