id_mutation.string(),date_mutation.date(2006-01-02),nature_mutation.string(),valeur_fonciere.double(),adresse_numero.int32(),adresse_nom_voie.string(),adresse_code_voie.string(),code_postal.int32(),code_commune.int32(),nom_commune.string(),code_departement.int32(),nombre_lots.int64(),type_local.string(),surface_reelle_bati.double(),nombre_pieces_principales.int32(),longitude.double(),latitude.double()
2020-1418426,2020-01-06,Vente,425000.0,19,RLE DATIER,0385,97400,97411,Saint-Denis,974,0,Maison,93.0,3,55.459532,-20.884153
2020-1418427,2020-01-10,Vente,113000.0,26,RUE DES ANEMONES,0089,97490,97411,Saint-Denis,974,1,Appartement,76.0,3,55.483274,-20.91215
2020-1418428,2020-01-09,Vente,255000.0,58,CHE DE LA MAIRIE    (GUILL),0951,97423,97415,Saint-Paul,974,0,Maison,54.0,3,55.300334,-21.032965
2020-1418430,2020-01-13,Vente,530000.0,33,RUE DES SEYCHELLES,1384,97434,97415,Saint-Paul,974,0,Maison,105.0,4,55.224451,-21.074647
2020-1418431,2020-01-13,Vente,67966.0,212,ALL DES TOPAZES,1397,97400,97411,Saint-Denis,974,1,Appartement,26.0,1,55.443434,-20.906418
2020-1418432,2020-01-06,Vente,130000.0,27,BD SAINT FRANCOIS,1261,97400,97411,Saint-Denis,974,1,Appartement,26.0,3,55.459991,-20.896613
2020-1418433,2020-01-09,Vente,53000.0,18,ALL DES CORINDONS,0366,97400,97411,Saint-Denis,974,1,Appartement,24.0,1,55.444988,-20.902814
2020-1418435,2020-01-15,Vente,62000.0,53,CHE DES PECHERS,1094,97490,97411,Saint-Denis,974,1,Appartement,32.0,2,55.477392,-20.911613
2020-1418437,2020-01-17,Vente,35000.0,41,RTE CD 60 CHAUDRON A MOUFIA,0299,97490,97411,Saint-Denis,974,1,Appartement,19.0,1,55.492201,-20.899512
2020-1418438,2020-01-17,Vente,50500.0,5,RUE DU MAINE,0806,97490,97411,Saint-Denis,974,1,Appartement,29.0,1,55.491286,-20.903247
2020-1418439,2020-01-17,Vente,124000.0,71,RUE TESSAN,1391,97490,97411,Saint-Denis,974,1,Appartement,59.0,3,55.47873,-20.896394
2020-1418440,2020-01-08,Vente,682500.0,21,IMP DES GRANDS BOIS,1875,97435,97415,Saint-Paul,974,0,Maison,143.0,5,55.261442,-21.048701
2020-1418442,2020-01-20,Vente,108000.0,6,RUE DES AMARANTES,0052,97490,97411,Saint-Denis,974,1,Appartement,65.0,3,55.474747,-20.893122
2020-1418443,2020-01-08,Vente,325000.0,36,RUE PHILIBERT,1110,97400,97411,Saint-Denis,974,0,Maison,38.0,3,55.447157,-20.887331
2020-1418444,2020-01-22,Vente,79000.0,25,BD DE LA PROVIDENCE,1160,97400,97411,Saint-Denis,974,1,Appartement,41.0,1,55.456121,-20.892859
2020-1418445,2020-01-03,Vente,583010.0,2,ALL DES CORNALINES,0402,97400,97411,Saint-Denis,974,0,Maison,142.0,5,55.448357,-20.898798
2020-1418446,2020-01-07,Vente,290000.0,7,RUE DES CYPRIS,0373,97434,97415,Saint-Paul,974,1,Appartement,65.0,3,55.241839,-21.092118
2020-1418447,2020-01-10,Vente,52000.0,26,RUE DE L ABATTOIR,0010,97400,97411,Saint-Denis,974,1,Appartement,22.0,1,55.443835,-20.878704
2020-1418448,2020-01-08,Vente,83000.0,5020,N 2 RIVIERE DES ROCHES,0442,97412,97402,Bras-Panon,974,1,Appartement,64.0,4,55.692708,-21.002425
2020-1418449,2020-01-07,Vente,880000.0,29,RUE DES NAUTILES,1029,97434,97415,Saint-Paul,974,1,Maison,161.0,4,55.249969,-21.10672
2020-1418450,2020-01-07,Vente,163300.0,9,RUE OMEGA,1854,97460,97415,Saint-Paul,974,1,Appartement,67.0,3,55.284205,-20.983935
2020-1418451,2020-01-02,Vente,148540.0,30,IMP DU CALVAIRE,0252,97434,97415,Saint-Paul,974,1,Appartement,39.0,2,55.22308,-21.050096
2020-1418452,2020-01-03,Vente,190000.0,25,LOT LES SALINES,A586,97434,97415,Saint-Paul,974,1,Maison,36.0,3,55.251116,-21.10547
2020-1418453,2020-01-08,Vente,67000.0,38,AV GEORGES BRASSENS - MOUFIA,0648,97490,97411,Saint-Denis,974,1,Appartement,35.0,2,55.480525,-20.901025
2020-1418454,2020-01-08,Vente,575000.0,54,ALL DES CITRINES,0332,97400,97411,Saint-Denis,974,0,Maison,163.0,7,55.44821,-20.902716
2020-1418455,2020-01-23,Vente,35000.0,16,ALL DES PRIMEVERES,1153,97490,97411,Saint-Denis,974,1,Appartement,24.0,1,55.487724,-20.910966
2020-1418456,2020-01-03,Vente,196324.62,1,RUE DES JADES,1845,97434,97415,Saint-Paul,974,1,Appartement,42.0,2,55.240868,-21.09145
2020-1418457,2020-01-23,Vente,75000.0,17,RTE LA RIVIERE DES PLUIES,1187,97490,97411,Saint-Denis,974,1,Appartement,40.0,2,55.501065,-20.900533
2020-1418458,2020-01-10,Vente,100000.0,18,CHE LEONEL BOYER,0227,97490,97411,Saint-Denis,974,1,Appartement,48.0,2,55.482614,-20.918595
2020-1418460,2020-01-20,Vente,355000.0,182,RUE JOSEPH HUBERT,1761,97435,97415,Saint-Paul,974,0,Maison,114.0,3,55.265848,-21.058436
2020-1418462,2020-01-13,Vente,42500.0,11,CHE DU CANAL URBAIN,0331,97441,97420,Sainte-Suzanne,974,1,Appartement,37.0,2,55.605494,-20.903918
2020-1418463,2020-01-09,Vente,235000.0,24,RUE MGR DE BEAUMONT,0920,97400,97411,Saint-Denis,974,2,Appartement,74.0,3,55.456108,-20.883626
2020-1418464,2020-01-15,Vente,1.0,57,RUE DES EUCALYPTUS,0190,97431,97406,La Plaine-des-Palmistes,974,0,Maison,65.0,4,55.631449,-21.140509
2020-1418465,2020-01-07,Vente,796000.0,20,RUE MIRAMIEL (ST G LES BAINS),1077,97434,97415,Saint-Paul,974,0,Maison,148.0,6,55.225774,-21.032122
2020-1418466,2020-01-17,Vente,980000.0,17,LIBERIA LES HAUTS,B051,97412,97402,Bras-Panon,974,0,Maison,120.0,4,55.659476,-21.008015
2020-1418466,2020-01-17,Vente,980000.0,17,LIBERIA LES HAUTS,B051,97412,97402,Bras-Panon,974,0,Maison,120.0,4,55.659476,-21.008015
2020-1418466,2020-01-17,Vente,980000.0,17,LIBERIA LES HAUTS,B051,97412,97402,Bras-Panon,974,0,Maison,120.0,4,55.659476,-21.008015
2020-1418466,2020-01-17,Vente,980000.0,17,LIBERIA LES HAUTS,B051,97412,97402,Bras-Panon,974,0,Maison,120.0,4,55.659476,-21.008015
2020-1418466,2020-01-17,Vente,980000.0,17,LIBERIA LES HAUTS,B051,97412,97402,Bras-Panon,974,0,Maison,120.0,4,55.659476,-21.008015
2020-1418468,2020-01-09,Vente,122000.0,9,AV DES COCOTIERS,0335,97400,97411,Saint-Denis,974,1,Local industriel. commercial ou assimilé,40.0,0,55.46216,-20.893416
2020-1418471,2020-01-08,Vente,74000.0,140,RUE DE CAMBUSTON,0390,97440,97409,Saint-André,974,1,Appartement,58.0,3,55.642868,-20.932604
2020-1418472,2020-01-17,Vente,145000.0,27,BD DU MAHATMA GANDHI,1476,97490,97411,Saint-Denis,974,1,Appartement,63.0,3,55.483617,-20.908178
2020-1418473,2020-01-21,Vente,270500.0,73,CHE DES NIAOULIS,0547,97400,97411,Saint-Denis,974,0,Maison,111.0,5,55.460522,-20.923515
2020-1418474,2020-01-15,Vente,252020.0,15,RUE JEAN TRESARRICQ,0777,97441,97420,Sainte-Suzanne,974,0,Maison,87.0,4,55.642382,-20.936043
2020-1418475,2020-01-21,Vente,41500.0,8,RUE ANTOINE ROUSSIN,0357,97438,97418,Sainte-Marie,974,1,Appartement,36.0,2,55.555542,-20.899766
2020-1418476,2020-01-15,Vente,1.0,37,RUE DES EUCALYPTUS,0190,97431,97406,La Plaine-des-Palmistes,974,0,Maison,69.0,4,55.632442,-21.139663
2020-1418477,2020-01-24,Vente en l'état futur d'achèvement,183300.0,294,RTE DE BOIS DE NEFLES,0211,97490,97411,Saint-Denis,974,1,Appartement,37.0,2,55.476101,-20.907636
2020-1418480,2020-01-13,Vente,580400.0,4,RUE CENTAURE,2016,97434,97415,Saint-Paul,974,0,Maison,136.0,5,55.231536,-21.059831
2020-1418481,2020-01-10,Vente,143000.0,8,RUE OMEGA,1854,97460,97415,Saint-Paul,974,1,Appartement,53.0,2,55.283674,-20.983793
2020-1418482,2020-01-09,Vente,545000.0,80,RUE DE LA BAIE,0100,97460,97415,Saint-Paul,974,0,Maison,42.0,3,55.263356,-21.012741
2020-1418483,2020-01-06,Vente,43846.15,152,RUE JEAN CHATEL,0650,97400,97411,Saint-Denis,974,1,Appartement,62.0,2,55.452042,-20.885282
2020-1418484,2020-01-07,Vente,225000.0,13,CHE CAFE,0065,97419,97408,La Possession,974,0,Maison,62.0,4,55.342036,-20.953371
2020-1418485,2020-01-06,Vente,250000.0,49,CHE MERA,0985,97435,97415,Saint-Paul,974,1,Maison,100.0,4,55.291622,-21.070526
2020-1418486,2020-01-09,Vente,59663.1,25,RUE PION D'INDE,1879,97460,97415,Saint-Paul,974,0,Maison,60.0,2,55.285277,-21.026236
2020-1418487,2020-01-06,Vente,210000.0,22,RUE DES JATTES,0789,97411,97415,Saint-Paul,974,0,Maison,80.0,3,55.322278,-20.980528
2020-1418490,2020-01-21,Vente,19513.47,49,RUE DES EUCALYPTUS,0190,97431,97406,La Plaine-des-Palmistes,974,0,Maison,85.0,3,55.631808,-21.140106
2020-1418491,2020-01-10,Vente,210000.0,31,LOT DU CAP       (STE ANNE),A199,97437,97410,Saint-Benoît,974,0,Maison,124.0,6,55.733097,-21.070152
2020-1418492,2020-01-16,Vente,153000.0,20,CHE DU CAP NOIR,0080,97419,97408,La Possession,974,0,Maison,94.0,4,55.386572,-20.985481
2020-1418493,2020-01-10,Vente,149580.0,91,RTE DES AZALEES,0127,97400,97411,Saint-Denis,974,0,Maison,73.0,4,55.438887,-20.924884
2020-1418493,2020-01-10,Vente,149580.0,91,RTE DES AZALEES,0127,97400,97411,Saint-Denis,974,0,Maison,73.0,4,55.438887,-20.924884
2020-1418494,2020-01-09,Vente,13759.54,13,RUE DU CANAL DU BERNICA,0262,97460,97415,Saint-Paul,974,0,Maison,55.0,4,55.285756,-20.994143
2020-1418495,2020-01-09,Vente,53866.63,19,RUE DES CARAMBOLES,0268,97411,97415,Saint-Paul,974,0,Maison,73.0,5,55.320476,-20.980292
2020-1418496,2020-01-14,Vente,637496.0,39,RUE DES JADES,1845,97434,97415,Saint-Paul,974,0,Maison,110.0,5,55.241308,-21.090138
2020-1418497,2020-01-06,Vente,280000.0,37,RUE MAURICE THOREZ,0257,97419,97408,La Possession,974,0,Maison,79.0,4,55.34627,-20.961316
2020-1418501,2020-01-14,Vente,275100.0,32,RUE D APRES,0100,97400,97411,Saint-Denis,974,1,Appartement,102.0,5,55.458277,-20.887298
2020-1418504,2020-01-24,Vente,310900.0,17,CHE DU BOEUF MORT,0049,97419,97408,La Possession,974,0,Maison,140.0,5,55.336965,-20.939792
2020-1418505,2020-01-20,Vente,146900.0,108,RUE SAINTE MARIE,1320,97400,97411,Saint-Denis,974,1,Appartement,65.0,3,55.456051,-20.882531
2020-1418509,2020-01-09,Vente,46507.65,12,RUE DES BEGONIAS,0155,97423,97415,Saint-Paul,974,0,Maison,55.0,4,55.311002,-21.036943
2020-1418511,2020-01-13,Vente,230000.0,1083,ROC SUD,1683,97440,97409,Saint-André,974,0,Maison,87.0,4,55.648959,-20.975635
2020-1418512,2020-01-10,Vente,2000000.0,6,RUE PIERRE AUBERT,1088,97490,97411,Saint-Denis,974,0,Local industriel. commercial ou assimilé,960.0,0,55.496416,-20.893781
2020-1418513,2020-01-15,Vente,65500.0,75,RUE AMIRAL BOUVET,0530,97470,97410,Saint-Benoît,974,1,Appartement,56.0,3,55.720528,-21.036853
2020-1418514,2020-01-24,Vente,75000.0,11,CHE DU CANAL URBAIN,0331,97441,97420,Sainte-Suzanne,974,1,Appartement,57.0,3,55.605494,-20.903918
2020-1418515,2020-01-03,Vente,70000.0,70,RTE DES BOUGAINVILLEES   LA MT,0215,97417,97411,Saint-Denis,974,0,Maison,50.0,5,55.41674,-20.899353
2020-1418515,2020-01-03,Vente,70000.0,70,RTE DES BOUGAINVILLEES   LA MT,0215,97417,97411,Saint-Denis,974,0,Maison,51.0,3,55.41674,-20.899353
2020-1418517,2020-01-03,Vente,56000.0,75,RUE DE LA CLINIQUE,0341,97490,97411,Saint-Denis,974,1,Appartement,24.0,1,55.478297,-20.899658
2020-1418518,2020-01-06,Vente,1350000.0,197,RUE ANDROPOLIS,0047,97440,97409,Saint-André,974,0,Local industriel. commercial ou assimilé,194.0,0,55.662498,-20.96243
2020-1418518,2020-01-06,Vente,1350000.0,197,RUE ANDROPOLIS,0047,97440,97409,Saint-André,974,0,Local industriel. commercial ou assimilé,376.0,0,55.662498,-20.96243
2020-1418518,2020-01-06,Vente,1350000.0,197,RUE ANDROPOLIS,0047,97440,97409,Saint-André,974,0,Local industriel. commercial ou assimilé,100.0,0,55.662498,-20.96243
2020-1418519,2020-01-13,Vente,137100.0,9,RUE DE LORRAINE,0780,97400,97411,Saint-Denis,974,1,Appartement,63.0,2,55.462046,-20.885486
2020-1418520,2020-01-07,Vente,135000.0,116,CHE DE L ABONDANCE,0130,97470,97410,Saint-Benoît,974,0,Maison,103.0,5,55.669213,-21.035992
2020-1418521,2020-01-02,Vente,130700.0,7,CHE HUBERT GRONDIN,0053,97438,97418,Sainte-Marie,974,0,Maison,117.0,4,55.529687,-20.93898
2020-1418522,2020-01-04,Vente,455000.0,27,ALL DES MYOSOTIS      CAMELIAS,0982,97400,97411,Saint-Denis,974,0,Maison,143.0,6,55.45944,-20.905282
2020-1418522,2020-01-04,Vente,455000.0,27,ALL DES MYOSOTIS      CAMELIAS,0982,97400,97411,Saint-Denis,974,0,Maison,179.0,7,55.45944,-20.905282
2020-1418522,2020-01-04,Vente,455000.0,27,ALL DES MYOSOTIS      CAMELIAS,0982,97400,97411,Saint-Denis,974,0,Maison,39.0,2,55.45944,-20.905282
2020-1418523,2020-01-13,Vente,160000.0,28,CHE DU BOIS DE NATTE,0192,97490,97411,Saint-Denis,974,1,Appartement,66.0,3,55.473293,-20.913916
2020-1418525,2020-01-15,Vente,370000.0,60,RTE DES GOYAVIERS       LA MTA,0591,97417,97411,Saint-Denis,974,0,Maison,120.0,5,55.416163,-20.905461
2020-1418525,2020-01-15,Vente,370000.0,60,RTE DES GOYAVIERS       LA MTA,0591,97417,97411,Saint-Denis,974,0,Maison,120.0,5,55.416163,-20.905461
2020-1418526,2020-01-14,Vente,100000.0,7,ALL DES FOULARDS,0011,97438,97418,Sainte-Marie,974,0,Maison,60.0,4,55.548531,-20.924221
2020-1418526,2020-01-14,Vente,100000.0,7,ALL DES FOULARDS,0011,97438,97418,Sainte-Marie,974,0,Maison,17.0,1,55.548531,-20.924221
2020-1418527,2020-01-15,Vente,45000.0,12,ROC DE L OASIS,1194,97400,97411,Saint-Denis,974,1,Appartement,27.0,1,55.465635,-20.89819
2020-1418530,2020-01-28,Vente,170000.0,145,CHE DE LA POUDRIERE,1203,97460,97415,Saint-Paul,974,1,Appartement,71.0,3,55.285998,-21.018027
2020-1418531,2020-01-10,Vente,52000.0,12,RUE DU MAINE,0806,97490,97411,Saint-Denis,974,1,Appartement,27.0,1,55.49054,-20.902613
2020-1418532,2020-01-09,Vente,7000.0,33,RUE DES GOYAVIERS,0234,97441,97420,Sainte-Suzanne,974,0,Maison,60.0,2,55.584081,-20.971684
2020-1418532,2020-01-09,Vente,7000.0,33,RUE DES GOYAVIERS,0234,97441,97420,Sainte-Suzanne,974,0,Maison,60.0,2,55.584081,-20.971684
2020-1418533,2020-01-31,Vente,184000.0,52,RUE RAYMOND MONDON,0328,97419,97408,La Possession,974,1,Appartement,88.0,4,55.342348,-20.924526
2020-1418534,2020-01-29,Vente,200000.0,30,RUE DES MOUETTES,1022,97434,97415,Saint-Paul,974,1,Appartement,50.0,3,55.234235,-21.093326
2020-1418535,2020-01-07,Vente,350000.0,96,RUE DES MOUETTES,1022,97434,97415,Saint-Paul,974,1,Maison,90.0,3,55.236487,-21.09495
2020-1418536,2020-01-06,Vente,428385.0,11,RUE DES MUSCADIERS,0465,97419,97408,La Possession,974,0,Maison,108.0,4,55.351148,-20.926678
2020-1418539,2020-01-22,Vente,240000.0,15,RUE DE L'HORIZON,0409,97438,97418,Sainte-Marie,974,0,Maison,153.0,6,55.529022,-20.922907
2020-1418540,2020-01-24,Vente,292550.0,47,CHE DE LA VIGIE,1463,97417,97411,Saint-Denis,974,0,Maison,100.0,5,55.428836,-20.886973
2020-1418541,2020-01-24,Vente,210000.0,440,ALL PALISSADE,1406,97440,97409,Saint-André,974,0,Maison,73.0,4,55.676248,-20.95522
2020-1418543,2020-01-29,Vente,42500.0,16,ALL DES PRIMEVERES,1153,97490,97411,Saint-Denis,974,1,Appartement,21.0,1,55.487724,-20.910966
2020-1418544,2020-01-30,Vente,36000.0,4,RUE GASTON  DEFFERRE,0688,97490,97411,Saint-Denis,974,1,Appartement,25.0,2,55.481413,-20.900616
2020-1418545,2020-01-09,Vente,99000.0,44,RUE JEAN JAURES,0207,97419,97408,La Possession,974,0,Maison,71.0,3,55.333612,-20.935043
2020-1418546,2020-01-28,Vente,130000.0,66,BD SAINT FRANCOIS,1261,97400,97411,Saint-Denis,974,1,Appartement,66.0,3,55.461449,-20.899575
2020-1418550,2020-01-24,Vente,270000.0,15,RUE NELSON MANDELA,0457,97419,97408,La Possession,974,0,Maison,124.0,6,55.326103,-20.963446
2020-1418551,2020-01-28,Vente,40000.0,66,BD SAINT FRANCOIS,1261,97400,97411,Saint-Denis,974,1,Appartement,25.0,1,55.461449,-20.899575
2020-1418552,2020-01-15,Vente,155000.0,101,RTE N  2 BOURBIER LES BAS,0471,97470,97410,Saint-Benoît,974,1,Maison,83.0,4,55.705299,-21.027143
2020-1418553,2020-01-10,Vente,35000.0,6,RUE DES FOUCHEROLLES,0545,97490,97411,Saint-Denis,974,1,Appartement,17.0,1,55.492201,-20.899512
2020-1418554,2020-01-31,Vente,230000.0,18,RUE EMMANUEL TEXER,0173,97419,97408,La Possession,974,0,Maison,62.0,4,55.335678,-20.927682
2020-1418555,2020-01-27,Vente,318000.0,8,RUE DENIS DIDEROT,0155,97419,97408,La Possession,974,0,Maison,75.0,4,55.34754,-20.958927
2020-1418556,2020-01-21,Vente,335000.0,104,RUE MARDE MOUTOU MINATCHY,1233,97420,97407,Le Port,974,0,Maison,134.0,5,55.317705,-20.956332
2020-1418557,2020-01-21,Vente,44500.0,25,RUE PAPANGUE,1056,97490,97411,Saint-Denis,974,1,Appartement,27.0,1,55.479499,-20.888759
2020-1418558,2020-01-20,Vente,147000.0,30,CHE DES FLEURS,0541,97490,97411,Saint-Denis,974,3,Appartement,61.0,3,55.495121,-20.920084
2020-1418559,2020-01-31,Vente,96000.0,129,CHE DU BOIS DE CAMPHRE,0204,97490,97411,Saint-Denis,974,0,Maison,94.0,4,55.4784,-20.927401
2020-1418562,2020-02-06,Vente,165000.0,8,RUE MAHATMA GANDHI,0247,97419,97408,La Possession,974,2,Local industriel. commercial ou assimilé,70.0,0,55.32271,-20.958588
2020-1418564,2020-01-31,Vente,120000.0,60,CHE DU PITON TRESOR,1115,97417,97411,Saint-Denis,974,1,Appartement,64.0,3,55.430845,-20.89621
2020-1418565,2020-01-10,Vente en l'état futur d'achèvement,204000.0,36,RUE DE LA HUPPE,2009,97411,97415,Saint-Paul,974,1,Appartement,40.0,2,55.319295,-20.983295
2020-1418566,2020-01-30,Vente,170500.0,69,RUE DE LA COLLINE    CMLIAS 2,0346,97400,97411,Saint-Denis,974,1,Appartement,66.0,3,55.460154,-20.903222
2020-1418567,2020-01-10,Vente,80000.0,87,RUE DES LIMITES,0371,97412,97402,Bras-Panon,974,0,Maison,86.0,4,55.67821,-20.999302
2020-1418568,2020-01-31,Vente,357650.0,8,RUE DU CHATEAU D EAU,0088,97419,97408,La Possession,974,0,Maison,45.0,3,55.343161,-20.953039
2020-1418569,2020-01-30,Vente,155000.0,66,BD SAINT FRANCOIS,1261,97400,97411,Saint-Denis,974,1,Appartement,83.0,4,55.461449,-20.899575
2020-1418570,2020-01-10,Vente,60000.0,129,RUE ELISA,0162,97438,97418,Sainte-Marie,974,0,Local industriel. commercial ou assimilé,88.0,0,55.548956,-20.926794
2020-1418574,2020-01-17,Vente,325000.0,4,ALL DES GRENADINES,0077,97438,97418,Sainte-Marie,974,0,Maison,119.0,4,55.524913,-20.930325
2020-1418577,2020-01-29,Vente,86000.0,135,RUE SAINTE MARIE,1320,97400,97411,Saint-Denis,974,1,Appartement,39.0,2,55.459828,-20.883043
2020-1418579,2020-01-24,Vente,40000.0,118,CHE DE BOIS ROUGE,0197,97490,97411,Saint-Denis,974,1,Appartement,21.0,1,55.488586,-20.924518
2020-1418580,2020-01-29,Vente,44500.0,215,BD JEAN  JAURES,0692,97490,97411,Saint-Denis,974,1,Appartement,21.0,1,55.478972,-20.898884
2020-1418581,2020-01-17,Vente,125000.0,32,RUE LEON DIERX,0758,97400,97411,Saint-Denis,974,1,Appartement,57.0,2,55.45909,-20.891158
2020-1418582,2020-02-07,Vente,410000.0,136,RUE LEOPOLD RAMBAUD,0761,97490,97411,Saint-Denis,974,0,Maison,205.0,7,55.482805,-20.886754
2020-1418584,2020-01-31,Vente,55000.0,37,RUE MONTREUIL,0970,97400,97411,Saint-Denis,974,1,Appartement,19.0,1,55.456912,-20.884657
2020-1418587,2020-01-20,Vente,220000.0,73,IMP ARMAND LEBEAU,0934,97470,97410,Saint-Benoît,974,0,Maison,97.0,4,55.686644,-21.030277
2020-1418589,2020-01-10,Vente,325000.0,15,RUE DES AJONCS,0037,97400,97411,Saint-Denis,974,0,Maison,120.0,6,55.457903,-20.899043
2020-1418590,2020-01-16,Vente,280000.0,20,RUE DE LA MARINE,0980,97460,97415,Saint-Paul,974,0,Maison,112.0,4,55.286746,-20.981331
2020-1418593,2020-01-24,Vente,388000.0,1,RUE DE LA FERMETTE,0262,97438,97418,Sainte-Marie,974,0,Maison,93.0,4,55.54473,-20.929863
2020-1418594,2020-01-16,Vente,626000.0,2,RUE DU GRAND LARGE,0713,97434,97415,Saint-Paul,974,0,Maison,100.0,4,55.225089,-21.047833
2020-1418596,2020-01-20,Vente,472500.0,1,RUE DES AGRUMES,0027,97411,97415,Saint-Paul,974,0,Maison,145.0,4,55.321631,-20.984809
2020-1418597,2020-01-29,Vente,385000.0,143,ALL DES TOPAZES,1397,97400,97411,Saint-Denis,974,0,Maison,143.0,5,55.443951,-20.901012
2020-1418598,2020-01-14,Vente,148000.0,75,RUE DE LA CONVENANCE,0093,97438,97418,Sainte-Marie,974,0,Maison,84.0,4,55.564439,-20.895431
2020-1418599,2020-01-17,Vente,313000.0,5,RUE DE L'HORIZON,0409,97438,97418,Sainte-Marie,974,0,Maison,89.0,5,55.530809,-20.923048
2020-1418601,2020-02-10,Vente,42950.0,5,RUE DES GOYAVES      STE CLOTI,0573,97490,97411,Saint-Denis,974,1,Appartement,19.0,1,55.484262,-20.894156
2020-1418602,2020-01-21,Vente,407805.0,10,IMP DES RAISINS,1703,97411,97415,Saint-Paul,974,0,Maison,121.0,4,55.329522,-20.978861
2020-1418603,2020-01-24,Vente,59000.0,193,AV EUDOXIE NONGE,0516,97490,97411,Saint-Denis,974,1,Appartement,31.0,1,55.494623,-20.899706
2020-1418604,2020-02-06,Vente,91000.0,107,RTE DE BOIS DE NEFLES,0211,97490,97411,Saint-Denis,974,1,Appartement,45.0,2,55.475693,-20.899271
2020-1418605,2020-01-23,Vente,125590.0,10,TSSE DE BOUCAN CANOT,A613,97434,97415,Saint-Paul,974,1,Appartement,40.0,1,55.227539,-21.031644
2020-1418606,2020-01-20,Vente,145000.0,8,RUE DES GLAIEULS,0689,97435,97415,Saint-Paul,974,0,Maison,50.0,3,55.260728,-21.059458
2020-1418608,2020-01-22,Vente,549150.0,15,RUE DES CEDRATS,0294,97411,97415,Saint-Paul,974,0,Maison,115.0,4,55.320526,-20.985301
2020-1418609,2020-01-15,Vente,49650.0,53,CHE DES PECHERS,1094,97490,97411,Saint-Denis,974,1,Appartement,31.0,1,55.477392,-20.911613
2020-1418610,2020-01-17,Vente,122000.0,5,RUE MAURICE RAVEL,0863,97490,97411,Saint-Denis,974,1,Appartement,64.0,3,55.481599,-20.890608
2020-1418611,2020-01-16,Vente,383000.0,56,RUE DES CONSTELLATIONS,0134,97419,97408,La Possession,974,0,Maison,108.0,4,55.336694,-20.941698
2020-1418612,2020-01-14,Vente,321000.0,3,CHE LAW WA,0862,97423,97415,Saint-Paul,974,0,Maison,100.0,5,55.297499,-21.036327
2020-1418614,2020-01-16,Vente,130000.0,21,RUE LACROIX,0728,97490,97411,Saint-Denis,974,1,Appartement,67.0,3,55.483086,-20.897059
2020-1418615,2020-02-04,Vente,128641.0,2,RUE MARCELLE VINKA,0577,97419,97408,La Possession,974,1,Appartement,76.0,3,55.333422,-20.936553
2020-1418616,2020-01-16,Vente,160000.0,79,AV DE LA CROIX DU SUD,0425,97434,97415,Saint-Paul,974,1,Appartement,43.0,2,55.228655,-21.061391
2020-1418617,2020-02-05,Vente,310000.0,4,IMP DES DODOS,0164,97419,97408,La Possession,974,0,Maison,139.0,4,55.362967,-20.926116
2020-1418620,2020-01-31,Vente,1103000.0,20,RUE JOSEPH BEDIER,0966,97440,97409,Saint-André,974,0,Local industriel. commercial ou assimilé,112.0,0,55.649275,-20.956935
2020-1418620,2020-01-31,Vente,1103000.0,20,RUE JOSEPH BEDIER,0966,97440,97409,Saint-André,974,0,Local industriel. commercial ou assimilé,68.0,0,55.649275,-20.956935
2020-1418620,2020-01-31,Vente,1103000.0,20,RUE JOSEPH BEDIER,0966,97440,97409,Saint-André,974,0,Local industriel. commercial ou assimilé,540.0,0,55.649275,-20.956935
2020-1418620,2020-01-31,Vente,1103000.0,20,RUE JOSEPH BEDIER,0966,97440,97409,Saint-André,974,0,Local industriel. commercial ou assimilé,58.0,0,55.649275,-20.956935
2020-1418620,2020-01-31,Vente,1103000.0,20,RUE JOSEPH BEDIER,0966,97440,97409,Saint-André,974,0,Local industriel. commercial ou assimilé,21.0,0,55.649275,-20.956935
2020-1418620,2020-01-31,Vente,1103000.0,20,RUE JOSEPH BEDIER,0966,97440,97409,Saint-André,974,0,Local industriel. commercial ou assimilé,68.0,0,55.649275,-20.956935
2020-1418622,2020-01-10,Vente,121000.0,9033,LOT LES TERRASSES DE MONTGAILL,A387,97400,97411,Saint-Denis,974,1,Appartement,43.0,2,55.46767,-20.901406
2020-1418623,2020-01-15,Vente,173500.0,18,RUE ALEXIS DE VILLENEUVE,0040,97400,97411,Saint-Denis,974,1,Appartement,43.0,1,55.448979,-20.877694
2020-1418623,2020-01-15,Vente,173500.0,18,RUE ALEXIS DE VILLENEUVE,0040,97400,97411,Saint-Denis,974,1,Appartement,12.0,1,55.448979,-20.877694
2020-1418625,2020-02-01,Vente,477000.0,2,RUE DE CORSE,0409,97460,97415,Saint-Paul,974,0,Maison,123.0,5,55.27436,-21.028376
2020-1418626,2020-01-14,Vente,83974.0,118,CHE DE BOIS ROUGE,0197,97490,97411,Saint-Denis,974,1,Appartement,58.0,3,55.488994,-20.924369
2020-1418627,2020-01-20,Vente,315000.0,5,RUE AUBERT RIVIERE,0781,97441,97420,Sainte-Suzanne,974,0,Maison,144.0,5,55.621362,-20.931888
2020-1418628,2020-02-11,Vente,79900.0,19,AV MAHATMA GANDHI,0696,97441,97420,Sainte-Suzanne,974,1,Appartement,45.0,2,55.633329,-20.926069
2020-1418629,2020-01-24,Vente,29000.0,193,AV MARCEL HOARAU,0847,97490,97411,Saint-Denis,974,1,Appartement,19.0,1,55.484524,-20.91284
2020-1418630,2020-01-15,Vente,35000.0,23,RUE DES JACINTHES,0634,97490,97411,Saint-Denis,974,1,Appartement,17.0,1,55.483971,-20.910698
2020-1418632,2020-01-31,Vente,190000.0,4,RUE DES DODOS,0464,97434,97415,Saint-Paul,974,1,Appartement,53.0,2,55.236992,-21.093511
2020-1418633,2020-01-28,Vente,391500.0,38,CHE DES TAMARIS,1379,97490,97411,Saint-Denis,974,0,Maison,161.0,5,55.494001,-20.931672
2020-1418634,2020-01-31,Vente,240000.0,123,CHE CANOT,0265,97460,97415,Saint-Paul,974,0,Maison,91.0,4,55.310702,-21.030089
2020-1418635,2020-01-24,Vente,319000.0,31,CHE DE MONTAUBAN,0937,97490,97411,Saint-Denis,974,0,Maison,101.0,4,55.494927,-20.9363
2020-1418636,2020-01-29,Vente,92000.0,20,RUE JEAN COCTEAU,0651,97490,97411,Saint-Denis,974,2,Appartement,35.0,2,55.466686,-20.887259
2020-1418637,2020-01-20,Vente,110000.0,103,BD SAINT FRANCOIS,1261,97400,97411,Saint-Denis,974,2,Appartement,53.0,3,55.462667,-20.902397
2020-1418638,2020-01-17,Vente,430500.0,32,IMP YLANG YLANG,1658,97460,97415,Saint-Paul,974,0,Maison,124.0,4,55.303735,-20.975433
2020-1418639,2020-01-15,Vente,275000.0,331,CD 41,0100,97419,97408,La Possession,974,0,Maison,84.0,3,55.37299,-20.924669
2020-1418640,2020-01-23,Vente,58200.0,42,AV DESBASSYNS,0391,97490,97411,Saint-Denis,974,1,Appartement,31.0,2,55.479827,-20.890314
2020-1418641,2020-01-15,Vente,62500.0,171,RUE DU GAL DE GAULLE,0570,97400,97411,Saint-Denis,974,1,Appartement,28.0,1,55.463384,-20.885079
2020-1418642,2020-01-31,Vente,8678.5,23,CHE DE LA CAYENNE LES BAS,0301,97417,97411,Saint-Denis,974,0,Maison,75.0,4,55.400151,-20.910965
2020-1418643,2020-02-14,Vente,55000.0,26,RUE DE L ABATTOIR,0010,97400,97411,Saint-Denis,974,1,Appartement,24.0,1,55.443835,-20.878704
2020-1418646,2020-02-10,Vente,181000.0,378,RTE DE BOIS DE NEFLES,0211,97490,97411,Saint-Denis,974,1,Appartement,92.0,4,55.475025,-20.913819
2020-1418650,2020-01-16,Vente,52200.0,10,ALL EDMOND ABOUT,0170,97420,97407,Le Port,974,0,Maison,55.0,4,55.30295,-20.941477
2020-1418652,2020-01-20,Vente,235000.0,13,ALL DU PLATEAU        MTGAILLA,1128,97400,97411,Saint-Denis,974,0,Maison,68.0,1,55.466289,-20.90716
2020-1418654,2020-01-20,Vente,88000.0,6,CD 41,0100,97419,97408,La Possession,974,1,Appartement,43.0,2,55.346192,-20.923668
2020-1418655,2020-01-14,Vente,146500.0,30,RUE TOURETTE,1400,97400,97411,Saint-Denis,974,2,Appartement,68.0,3,55.446091,-20.887787
2020-1418658,2020-01-17,Vente,93130.0,27,ALL CHARLES BAUDELAIRE,0267,97490,97411,Saint-Denis,974,0,Maison,75.0,6,55.484694,-20.88842
2020-1418661,2020-01-20,Vente,275000.0,16,ALL DES VIOLETTES,1466,97490,97411,Saint-Denis,974,1,Maison,102.0,3,55.472231,-20.915972
2020-1418662,2020-01-24,Vente,250000.0,215,RTE DE BOIS DE NEFLES,0211,97490,97411,Saint-Denis,974,0,Maison,56.0,3,55.474693,-20.910058
2020-1418663,2020-01-20,Vente,158000.0,8,RUE RAPHAEL BARQUISSEAU,1176,97490,97411,Saint-Denis,974,1,Appartement,92.0,4,55.478136,-20.897614
2020-1418664,2020-01-21,Vente,230000.0,67,RUE PHILIBERT,1110,97400,97411,Saint-Denis,974,1,Appartement,103.0,4,55.447526,-20.889182
2020-1418665,2020-01-29,Vente,100000.0,15,RUE LONGANIS,1150,97440,97409,Saint-André,974,0,Maison,68.0,5,55.656498,-20.971086
2020-1418666,2020-01-15,Vente,79550.0,12,RUE NEUVE,1000,97400,97411,Saint-Denis,974,0,Local industriel. commercial ou assimilé,55.0,0,55.4521,-20.873679
2020-1418667,2020-01-15,Vente,110000.0,69,RUE DE LA COLLINE    CMLIAS 2,0346,97400,97411,Saint-Denis,974,1,Appartement,42.0,2,55.460154,-20.903222
2020-1418668,2020-01-31,Vente,130000.0,482,RUE DU TEMPLE,1848,97440,97409,Saint-André,974,0,Maison,52.0,3,55.669041,-20.965493
2020-1418669,2020-01-21,Vente,140000.0,8,ALL DES AIGRETTES,0025,97434,97415,Saint-Paul,974,1,Appartement,49.0,2,55.229898,-21.050823
2020-1418670,2020-01-07,Vente,70000.0,11,RUE DU MOULIN A VENT,0980,97400,97411,Saint-Denis,974,1,Appartement,19.0,1,55.451042,-20.87377
2020-1418671,2020-01-21,Vente en l'état futur d'achèvement,550000.0,86,ALL DES SPINELLES,1362,97400,97411,Saint-Denis,974,1,Appartement,135.0,4,55.445809,-20.899912
2020-1418672,2020-01-17,Vente,187000.0,410,RUE NOTRE DAME DE LOURDES,1478,97490,97411,Saint-Denis,974,0,Local industriel. commercial ou assimilé,60.0,0,55.475187,-20.917797
2020-1418675,2020-01-23,Vente en l'état futur d'achèvement,182200.0,38,RLE MAGNAN,0802,97490,97411,Saint-Denis,974,1,Appartement,41.0,2,55.467726,-20.887409
2020-1418676,2020-01-23,Vente,185000.0,10,RLE DES MANGUIERS,0970,97460,97415,Saint-Paul,974,0,Maison,52.0,3,55.284149,-20.994622
2020-1418677,2020-01-28,Vente,365000.0,58,RUE DES BONITES,0174,97434,97415,Saint-Paul,974,0,Maison,64.0,3,55.234102,-21.055139
2020-1418677,2020-01-28,Vente,365000.0,58,RUE DES BONITES,0174,97434,97415,Saint-Paul,974,0,Maison,61.0,4,55.234102,-21.055139
2020-1418679,2020-01-27,Vente,87000.0,116,RUE HO CHI MINH,0203,97419,97408,La Possession,974,1,Appartement,37.0,2,55.333698,-20.96357
2020-1418681,2020-01-24,Vente,199000.0,42,RUE JOSEPH HUBERT,1761,97435,97415,Saint-Paul,974,1,Local industriel. commercial ou assimilé,30.0,0,55.26672,-21.047553
2020-1418681,2020-01-24,Vente,199000.0,42,RUE JOSEPH HUBERT,1761,97435,97415,Saint-Paul,974,1,Local industriel. commercial ou assimilé,79.0,0,55.26672,-21.047553
2020-1418682,2020-01-20,Vente,10000.0,201,CHE ROBERT,0391,97438,97418,Sainte-Marie,974,0,Maison,44.0,1,55.537472,-20.941928
2020-1418682,2020-01-20,Vente,10000.0,201,CHE ROBERT,0391,97438,97418,Sainte-Marie,974,0,Maison,60.0,3,55.537472,-20.941928
2020-1418682,2020-01-20,Vente,10000.0,201,CHE ROBERT,0391,97438,97418,Sainte-Marie,974,0,Maison,128.0,5,55.537472,-20.941928
2020-1418682,2020-01-20,Vente,10000.0,201,CHE ROBERT,0391,97438,97418,Sainte-Marie,974,0,Maison,66.0,2,55.537472,-20.941928
2020-1418683,2020-01-31,Vente,80000.0,113,CHE LORY LEBRETON    LA BRETAG,0784,97490,97411,Saint-Denis,974,1,Appartement,45.0,2,55.497555,-20.924958
2020-1418685,2020-01-31,Vente,42500.0,11,RLE MOULIN A MAIS,0290,97438,97418,Sainte-Marie,974,1,Appartement,38.0,2,55.548057,-20.898703
2020-1418687,2020-01-31,Vente,34000.0,14,RUE DU BEARN,0157,97490,97411,Saint-Denis,974,1,Appartement,29.0,1,55.489445,-20.903177
2020-1418690,2020-01-29,Vente,8500.0,317,CHE SUMMER N 2    (EPERON),1401,97435,97415,Saint-Paul,974,0,Maison,48.0,4,55.255586,-21.039942
2020-1418690,2020-01-29,Vente,8500.0,317,CHE SUMMER N 2    (EPERON),1401,97435,97415,Saint-Paul,974,0,Maison,160.0,6,55.255586,-21.039942
2020-1418691,2020-01-27,Vente,142600.0,13,RUE DES TOURTEREAUX,1402,97400,97411,Saint-Denis,974,1,Appartement,81.0,3,55.461366,-20.900092
2020-1418692,2020-01-27,Vente,83400.0,55,BD SAINT FRANCOIS,1261,97400,97411,Saint-Denis,974,1,Appartement,36.0,1,55.461515,-20.897192
2020-1418693,2020-01-29,Vente,200000.0,4,ALL HENRI MORANGE,0430,97412,97402,Bras-Panon,974,0,Maison,134.0,5,55.677207,-20.993705
2020-1418694,2020-01-23,Vente,112500.0,18,ALL DES CORINDONS,0366,97400,97411,Saint-Denis,974,1,Appartement,47.0,3,55.444988,-20.902814
2020-1418695,2020-02-07,Vente,110000.0,24,RUE DIOMARD,0146,97412,97402,Bras-Panon,974,0,Maison,88.0,6,55.643909,-20.984197
2020-1418696,2020-01-24,Vente,53800.0,118,CHE DE BOIS ROUGE,0197,97490,97411,Saint-Denis,974,1,Appartement,37.0,2,55.486633,-20.923917
2020-1418698,2020-02-06,Vente,165000.0,4,RUE EUGENE DAYOT (VILLE),0439,97460,97415,Saint-Paul,974,1,Local industriel. commercial ou assimilé,63.0,0,55.272683,-21.007432
2020-1418699,2020-01-31,Vente,80000.0,10,LOT DUHAL 1,A150,97470,97410,Saint-Benoît,974,0,Appartement,35.0,2,55.719602,-21.043928
2020-1418700,2020-02-07,Vente,326000.0,6,CHE DU BOIS DE PINTADE,0033,97490,97411,Saint-Denis,974,0,Maison,152.0,6,55.479618,-20.912775
2020-1418701,2020-02-11,Vente,160000.0,1,RUE DES BADAMIERS,0591,97441,97420,Sainte-Suzanne,974,0,Maison,107.0,5,55.608832,-20.906144
2020-1418702,2020-02-07,Vente,216950.0,8,ALL DES SPINELLES,1362,97400,97411,Saint-Denis,974,1,Appartement,78.0,3,55.44694,-20.898124
2020-1418703,2020-02-07,Vente,533500.0,6,RUE EMILE GRIMAUD,0486,97490,97411,Saint-Denis,974,0,Local industriel. commercial ou assimilé,200.0,0,55.482888,-20.88923
2020-1418703,2020-02-07,Vente,533500.0,6,RUE EMILE GRIMAUD,0486,97490,97411,Saint-Denis,974,0,Appartement,45.0,2,55.482888,-20.88923
2020-1418703,2020-02-07,Vente,533500.0,6,RUE EMILE GRIMAUD,0486,97490,97411,Saint-Denis,974,0,Appartement,45.0,2,55.482888,-20.88923
2020-1418703,2020-02-07,Vente,533500.0,6,RUE EMILE GRIMAUD,0486,97490,97411,Saint-Denis,974,0,Appartement,45.0,2,55.482888,-20.88923
2020-1418703,2020-02-07,Vente,533500.0,6,RUE EMILE GRIMAUD,0486,97490,97411,Saint-Denis,974,0,Appartement,45.0,2,55.482888,-20.88923
2020-1418703,2020-02-07,Vente,533500.0,6,RUE EMILE GRIMAUD,0486,97490,97411,Saint-Denis,974,0,Appartement,67.0,3,55.482888,-20.88923
2020-1418703,2020-02-07,Vente,533500.0,6,RUE EMILE GRIMAUD,0486,97490,97411,Saint-Denis,974,0,Appartement,45.0,2,55.482888,-20.88923
2020-1418703,2020-02-07,Vente,533500.0,6,RUE EMILE GRIMAUD,0486,97490,97411,Saint-Denis,974,0,Appartement,67.0,3,55.482888,-20.88923
2020-1418704,2020-02-07,Vente,138000.0,17,RUE DE LA COLLINE    CMLIAS 2,0346,97400,97411,Saint-Denis,974,1,Appartement,45.0,2,55.457081,-20.8999
2020-1418706,2020-02-06,Vente,238000.0,144,RUE SAINTE MARIE,1320,97400,97411,Saint-Denis,974,1,Appartement,93.0,5,55.457741,-20.88291
2020-1418708,2020-01-30,Vente,225000.0,28,RTE DU VIEUX FLAMBOYANT,1483,97435,97415,Saint-Paul,974,1,Maison,119.0,4,55.284099,-21.043916
2020-1418709,2020-01-28,Vente,240000.0,4,CHE BAILLY,0133,97417,97411,Saint-Denis,974,1,Appartement,97.0,4,55.422459,-20.887207
2020-1418711,2020-01-28,Vente,200000.0,209,CHE DES BARRIERES (BDN),0129,97411,97415,Saint-Paul,974,0,Maison,99.0,4,55.329365,-21.018374
2020-1418712,2020-02-07,Vente,264500.0,78,ALL DES TOPAZES,1397,97400,97411,Saint-Denis,974,1,Appartement,82.0,4,55.442134,-20.896532
2020-1418715,2020-02-06,Vente,260000.0,32,CHE DES FOUGERES      LA BRETA,0673,97490,97411,Saint-Denis,974,0,Appartement,65.0,4,55.487462,-20.931744
2020-1418715,2020-02-06,Vente,260000.0,32,CHE DES FOUGERES      LA BRETA,0673,97490,97411,Saint-Denis,974,0,Appartement,55.0,3,55.487462,-20.931744
2020-1418716,2020-02-12,Vente,45000.0,11,RLE MOULIN A MAIS,0290,97438,97418,Sainte-Marie,974,1,Appartement,34.0,2,55.548057,-20.898703
2020-1418717,2020-01-27,Vente,150000.0,837,CHE DE L ECOLE,0680,97440,97409,Saint-André,974,0,Maison,51.0,3,55.673227,-20.94137
2020-1418717,2020-01-27,Vente,150000.0,837,CHE DE L ECOLE,0680,97440,97409,Saint-André,974,0,Maison,51.0,3,55.673227,-20.94137
2020-1418719,2020-01-31,Vente,110000.0,8,RUE GASTON  DEFFERRE,0688,97490,97411,Saint-Denis,974,1,Appartement,75.0,4,55.481413,-20.900616
2020-1418720,2020-02-12,Vente,177785.0,63,AV DES MARTINS,0992,97460,97415,Saint-Paul,974,1,Appartement,64.0,3,55.266499,-21.026462
2020-1418722,2020-02-13,Vente,78000.0,1,RUE DES SENTEURS,0530,97412,97402,Bras-Panon,974,1,Appartement,44.0,2,55.68873,-20.999991
2020-1418723,2020-01-27,Vente,15000.0,106,RUE SALOMON,1588,97422,97415,Saint-Paul,974,0,Maison,76.0,4,55.263402,-21.078659
2020-1418724,2020-01-30,Vente,340000.0,4,RUE DES PECHES CAVALES,1083,97434,97415,Saint-Paul,974,0,Maison,86.0,4,55.231461,-21.056596
2020-1418725,2020-02-18,Vente,170000.0,2413,CHE LEFAGUYES,1100,97440,97409,Saint-André,974,0,Maison,88.0,3,55.676405,-20.949052
2020-1418727,2020-01-29,Vente en l'état futur d'achèvement,260000.0,25,RUE DU GEN DE GAULLE  (ST G),0659,97434,97415,Saint-Paul,974,1,Appartement,58.0,2,55.222546,-21.049214
2020-1418729,2020-01-29,Vente,224000.0,26,RLE DES AJONCS,0032,97434,97415,Saint-Paul,974,1,Appartement,33.0,2,55.226862,-21.082757
2020-1418730,2020-01-30,Vente,150000.0,11,LOT GRAND CANAL,A088,97440,97409,Saint-André,974,0,Maison,51.0,5,55.685834,-20.951984
2020-1418732,2020-02-21,Vente,56000.0,15,RUE DES JACINTHES,0634,97490,97411,Saint-Denis,974,1,Appartement,32.0,2,55.484795,-20.910343
2020-1418733,2020-01-31,Vente,140000.0,155,CHE RIO,1650,97440,97409,Saint-André,974,0,Maison,56.0,4,55.664127,-20.9487
2020-1418734,2020-02-07,Vente,55500.0,18,RUE MONTHYON,0960,97400,97411,Saint-Denis,974,1,Appartement,28.0,2,55.454041,-20.888226
2020-1418736,2020-01-30,Vente,130000.0,3,IMP DES COCOTIERS,0294,97439,97419,Sainte-Rose,974,0,Maison,66.0,3,55.814722,-21.14368
2020-1418740,2020-02-03,Vente,270000.0,20,RUE DES BENGALIS,0156,97460,97415,Saint-Paul,974,0,Local industriel. commercial ou assimilé,50.0,0,55.271371,-21.026953
2020-1418740,2020-02-03,Vente,270000.0,20,RUE DES BENGALIS,0156,97460,97415,Saint-Paul,974,0,Maison,110.0,5,55.271371,-21.026953
2020-1418741,2020-02-17,Vente,182000.0,2,RUE JACQUOT,0780,97460,97415,Saint-Paul,974,1,Appartement,60.0,4,55.283796,-20.982218
2020-1418744,2020-02-13,Vente,258527.12,14,RUE EMMANUEL TEXER,0173,97419,97408,La Possession,974,0,Maison,62.0,4,55.335871,-20.927815
2020-1418745,2020-02-12,Vente,130000.0,30,IMP DU CALVAIRE,0252,97434,97415,Saint-Paul,974,1,Appartement,23.0,1,55.22308,-21.050096
2020-1418746,2020-02-11,Vente,304300.0,22,RTE DES EUCALYPTUS      LA MTA,0498,97417,97411,Saint-Denis,974,1,Appartement,119.0,4,55.431373,-20.887909
2020-1418747,2020-01-31,Vente,113333.0,9,RUE ROBESPIERRE,0331,97419,97408,La Possession,974,0,Maison,65.0,4,55.335923,-20.959972
2020-1418749,2020-01-31,Vente,296886.8,37,RUE LECONTE DE LISLE,0730,97470,97410,Saint-Benoît,974,0,Maison,188.0,5,55.709409,-21.036487
2020-1418750,2020-02-14,Vente,36000.0,118,CHE DE BOIS ROUGE,0197,97490,97411,Saint-Denis,974,1,Appartement,24.0,1,55.488586,-20.924518
2020-1418751,2020-02-14,Vente,44900.0,118,RUE ROLAND GARROS,1190,97400,97411,Saint-Denis,974,1,Appartement,26.0,1,55.458035,-20.882039
2020-1418752,2020-02-03,Vente,60000.0,7,RUE DES GOYAVES      STE CLOTI,0573,97490,97411,Saint-Denis,974,1,Appartement,21.0,1,55.484329,-20.894308
2020-1418752,2020-02-03,Vente,60000.0,60,ALL DES TULIPES,1413,97490,97411,Saint-Denis,974,1,Appartement,20.0,1,55.485262,-20.916654
2020-1418753,2020-02-14,Vente,180000.0,3,CHE HAUTBOIS,0603,97417,97411,Saint-Denis,974,1,Appartement,58.0,3,55.424643,-20.888637
2020-1418754,2020-01-22,Vente,370000.0,62,CHE BIEN AIME,0160,97422,97415,Saint-Paul,974,0,Maison,103.0,4,55.258494,-21.070006
2020-1418755,2020-02-21,Vente,215000.0,183,CHE COMMUNE CARRON,0130,97441,97420,Sainte-Suzanne,974,0,Maison,79.0,4,55.612766,-20.937534
2020-1418756,2020-02-03,Vente,300000.0,111,CHE WELSH,1510,97422,97415,Saint-Paul,974,0,Maison,65.0,4,55.267812,-21.081194
2020-1418757,2020-02-13,Vente,44500.0,60,CHE DU PITON TRESOR,1115,97417,97411,Saint-Denis,974,1,Appartement,34.0,1,55.430845,-20.89621
2020-1418758,2020-01-31,Vente,55000.0,118,CHE DE BOIS ROUGE,0197,97490,97411,Saint-Denis,974,1,Appartement,37.0,2,55.488586,-20.924518
2020-1418759,2020-01-30,Vente,175000.0,31,RUE MONTHYON,0960,97400,97411,Saint-Denis,974,1,Appartement,60.0,2,55.45617,-20.887006
2020-1418761,2020-02-18,Vente,178263.0,5,CHE DE LA CAVERNE,0289,97434,97415,Saint-Paul,974,1,Appartement,67.0,4,55.230418,-21.051269
2020-1418762,2020-02-14,Vente,130000.0,57,CHE COMMINS,0359,97417,97411,Saint-Denis,974,1,Appartement,60.0,3,55.407749,-20.890099
2020-1418764,2020-02-12,Vente,52000.0,118,CHE DE BOIS ROUGE,0197,97490,97411,Saint-Denis,974,1,Appartement,39.0,2,55.486633,-20.923917
2020-1418765,2020-02-05,Vente,40000.0,99,AV LECONTE DE LISLE,0756,97490,97411,Saint-Denis,974,1,Appartement,18.0,1,55.491383,-20.895921
2020-1418767,2020-02-14,Vente,492500.0,7,CHE DUFOURG LES BAS,0443,97490,97411,Saint-Denis,974,0,Maison,108.0,4,55.505113,-20.913415
2020-1418768,2020-02-11,Vente,56730.0,32,CHE DES PECHERS,1094,97490,97411,Saint-Denis,974,1,Appartement,38.0,2,55.476823,-20.911739
2020-1418769,2020-02-13,Vente,270960.0,36,RUE MILITAIRE,0900,97400,97411,Saint-Denis,974,0,Maison,92.0,4,55.441363,-20.879313
2020-1418770,2020-02-04,Vente,310000.0,33,ALL DES RUBIS,1225,97400,97411,Saint-Denis,974,1,Appartement,72.0,3,55.44502,-20.898938
2020-1418772,2020-02-11,Vente,48000.0,89,RUE LORY LES HAUTS,0781,97490,97411,Saint-Denis,974,1,Appartement,29.0,2,55.48174,-20.896317
2020-1418773,2020-02-12,Vente,745000.0,67,RUE DU GEN DE GAULLE  (ST G),0659,97434,97415,Saint-Paul,974,0,Local industriel. commercial ou assimilé,513.0,0,55.225162,-21.050788
2020-1418773,2020-02-12,Vente,745000.0,67,RUE DU GEN DE GAULLE  (ST G),0659,97434,97415,Saint-Paul,974,0,Local industriel. commercial ou assimilé,53.0,0,55.225162,-21.050788
2020-1418773,2020-02-12,Vente,745000.0,67,RUE DU GEN DE GAULLE  (ST G),0659,97434,97415,Saint-Paul,974,0,Local industriel. commercial ou assimilé,64.0,0,55.225162,-21.050788
2020-1418776,2020-02-17,Vente,66000.0,18,ALL DES CORINDONS,0366,97400,97411,Saint-Denis,974,1,Appartement,37.0,2,55.444988,-20.902814
2020-1418777,2020-01-31,Vente,280000.0,4,RTE DE MONTGAILLARD,0950,97400,97411,Saint-Denis,974,1,Appartement,101.0,4,55.468437,-20.898248
2020-1418778,2020-02-03,Vente,55000.0,118,CHE DE BOIS ROUGE,0197,97490,97411,Saint-Denis,974,1,Appartement,37.0,2,55.488994,-20.924369
2020-1418780,2020-01-30,Vente,208000.0,87,CHE DU COLORADO,0352,97417,97411,Saint-Denis,974,1,Maison,67.0,4,55.423648,-20.893251
2020-1418782,2020-01-31,Vente,210000.0,204,CHE FINETTE,0535,97490,97411,Saint-Denis,974,0,Maison,140.0,5,55.471702,-20.911452
2020-1418783,2020-01-30,Vente,850000.0,16,RTE DE SAINT PIERRE,1287,97434,97415,Saint-Paul,974,0,Maison,80.0,4,55.249128,-21.105219
2020-1418786,2020-02-06,Vente,145000.0,57,CHE COMMINS,0359,97417,97411,Saint-Denis,974,1,Appartement,61.0,3,55.407749,-20.890099
2020-1418788,2020-02-10,Vente,255000.0,9,RUE OMEGA,1854,97460,97415,Saint-Paul,974,1,Appartement,87.0,4,55.284205,-20.983935
2020-1418789,2020-02-21,Vente,348000.0,28,CHE NEUF         LA MONTAGNE,0998,97417,97411,Saint-Denis,974,0,Maison,214.0,7,55.425317,-20.885087
2020-1418790,2020-02-07,Vente,42000.0,12,RUE GASTON  DEFFERRE,0688,97490,97411,Saint-Denis,974,1,Appartement,23.0,1,55.480519,-20.900216
2020-1418791,2020-02-11,Vente,166500.0,16,RUE DES CORMORANS,0397,97460,97415,Saint-Paul,974,0,Maison,51.0,3,55.26856,-21.021059
2020-1418792,2020-02-12,Vente,41000.0,87,LOT LES LILAS,A130,97440,97409,Saint-André,974,0,Maison,18.0,1,55.646482,-20.95904
2020-1418797,2020-02-19,Vente,153713.0,58,AV DE LA GRANDE OURSE,1746,97434,97415,Saint-Paul,974,1,Appartement,51.0,2,55.2274,-21.063696
2020-1418801,2020-02-17,Vente,213850.0,14,BD LECONTE DE LISLE,0898,97434,97415,Saint-Paul,974,1,Appartement,28.0,2,55.226883,-21.082632
2020-1418803,2020-02-04,Vente,3582115.8,2,CHE LA PAIX,0150,97470,97410,Saint-Benoît,974,0,Maison,101.0,5,55.695902,-21.007227
2020-1418803,2020-02-04,Vente,3582115.8,2,CHE LA PAIX,0150,97470,97410,Saint-Benoît,974,0,Maison,101.0,4,55.695902,-21.007227
2020-1418803,2020-02-04,Vente,3582115.8,2,CHE LA PAIX,0150,97470,97410,Saint-Benoît,974,0,Maison,101.0,5,55.695902,-21.007227
2020-1418803,2020-02-04,Vente,3582115.8,2,CHE LA PAIX,0150,97470,97410,Saint-Benoît,974,0,Maison,101.0,5,55.695902,-21.007227
2020-1418803,2020-02-04,Vente,3582115.8,2,CHE LA PAIX,0150,97470,97410,Saint-Benoît,974,0,Maison,101.0,4,55.695902,-21.007227
2020-1418803,2020-02-04,Vente,3582115.8,2,CHE LA PAIX,0150,97470,97410,Saint-Benoît,974,0,Maison,101.0,5,55.695902,-21.007227
2020-1418803,2020-02-04,Vente,3582115.8,2,CHE LA PAIX,0150,97470,97410,Saint-Benoît,974,0,Maison,88.0,4,55.695902,-21.007227
2020-1418803,2020-02-04,Vente,3582115.8,2,CHE LA PAIX,0150,97470,97410,Saint-Benoît,974,0,Maison,88.0,4,55.695902,-21.007227
2020-1418803,2020-02-04,Vente,3582115.8,2,CHE LA PAIX,0150,97470,97410,Saint-Benoît,974,0,Maison,88.0,4,55.695902,-21.007227
2020-1418803,2020-02-04,Vente,3582115.8,2,CHE LA PAIX,0150,97470,97410,Saint-Benoît,974,0,Maison,88.0,4,55.695902,-21.007227
2020-1418803,2020-02-04,Vente,3582115.8,2,CHE LA PAIX,0150,97470,97410,Saint-Benoît,974,0,Maison,88.0,4,55.695902,-21.007227
2020-1418803,2020-02-04,Vente,3582115.8,2,CHE LA PAIX,0150,97470,97410,Saint-Benoît,974,0,Maison,88.0,4,55.695902,-21.007227
2020-1418803,2020-02-04,Vente,3582115.8,2,CHE LA PAIX,0150,97470,97410,Saint-Benoît,974,0,Maison,101.0,5,55.695902,-21.007227
2020-1418803,2020-02-04,Vente,3582115.8,2,CHE LA PAIX,0150,97470,97410,Saint-Benoît,974,0,Maison,88.0,4,55.695902,-21.007227
2020-1418803,2020-02-04,Vente,3582115.8,2,CHE LA PAIX,0150,97470,97410,Saint-Benoît,974,0,Maison,101.0,5,55.695902,-21.007227
2020-1418803,2020-02-04,Vente,3582115.8,2,CHE LA PAIX,0150,97470,97410,Saint-Benoît,974,0,Maison,106.0,5,55.695902,-21.007227
2020-1418803,2020-02-04,Vente,3582115.8,2,CHE LA PAIX,0150,97470,97410,Saint-Benoît,974,0,Maison,88.0,4,55.695902,-21.007227
2020-1418803,2020-02-04,Vente,3582115.8,2,CHE LA PAIX,0150,97470,97410,Saint-Benoît,974,0,Maison,88.0,4,55.695902,-21.007227
2020-1418803,2020-02-04,Vente,3582115.8,2,CHE LA PAIX,0150,97470,97410,Saint-Benoît,974,0,Maison,88.0,4,55.695902,-21.007227
2020-1418803,2020-02-04,Vente,3582115.8,2,CHE LA PAIX,0150,97470,97410,Saint-Benoît,974,0,Maison,88.0,4,55.695902,-21.007227
2020-1418803,2020-02-04,Vente,3582115.8,2,CHE LA PAIX,0150,97470,97410,Saint-Benoît,974,0,Maison,88.0,4,55.695902,-21.007227
2020-1418803,2020-02-04,Vente,3582115.8,2,CHE LA PAIX,0150,97470,97410,Saint-Benoît,974,0,Maison,88.0,4,55.695902,-21.007227
2020-1418803,2020-02-04,Vente,3582115.8,2,CHE LA PAIX,0150,97470,97410,Saint-Benoît,974,0,Maison,88.0,4,55.695902,-21.007227
2020-1418803,2020-02-04,Vente,3582115.8,2,CHE LA PAIX,0150,97470,97410,Saint-Benoît,974,0,Maison,88.0,4,55.695902,-21.007227
2020-1418803,2020-02-04,Vente,3582115.8,2,CHE LA PAIX,0150,97470,97410,Saint-Benoît,974,0,Maison,88.0,4,55.695902,-21.007227
2020-1418803,2020-02-04,Vente,3582115.8,2,CHE LA PAIX,0150,97470,97410,Saint-Benoît,974,0,Maison,88.0,4,55.695902,-21.007227
2020-1418803,2020-02-04,Vente,3582115.8,2,CHE LA PAIX,0150,97470,97410,Saint-Benoît,974,0,Maison,88.0,4,55.695902,-21.007227
2020-1418803,2020-02-04,Vente,3582115.8,2,CHE LA PAIX,0150,97470,97410,Saint-Benoît,974,0,Maison,88.0,4,55.695902,-21.007227
2020-1418803,2020-02-04,Vente,3582115.8,2,CHE LA PAIX,0150,97470,97410,Saint-Benoît,974,0,Maison,88.0,4,55.695902,-21.007227
2020-1418803,2020-02-04,Vente,3582115.8,2,CHE LA PAIX,0150,97470,97410,Saint-Benoît,974,0,Maison,88.0,4,55.695902,-21.007227
2020-1418803,2020-02-04,Vente,3582115.8,2,CHE LA PAIX,0150,97470,97410,Saint-Benoît,974,0,Maison,88.0,4,55.695902,-21.007227
2020-1418803,2020-02-04,Vente,3582115.8,2,CHE LA PAIX,0150,97470,97410,Saint-Benoît,974,0,Maison,88.0,4,55.695902,-21.007227
2020-1418803,2020-02-04,Vente,3582115.8,2,CHE LA PAIX,0150,97470,97410,Saint-Benoît,974,0,Maison,88.0,4,55.695902,-21.007227
2020-1418803,2020-02-04,Vente,3582115.8,2,CHE LA PAIX,0150,97470,97410,Saint-Benoît,974,0,Maison,88.0,4,55.695902,-21.007227
2020-1418803,2020-02-04,Vente,3582115.8,2,CHE LA PAIX,0150,97470,97410,Saint-Benoît,974,0,Maison,88.0,4,55.695902,-21.007227
2020-1418804,2020-02-04,Vente,42250.0,175,CHE BEDERE MAILLOT,0129,97440,97409,Saint-André,974,0,Maison,150.0,4,55.684813,-20.974981
2020-1418806,2020-02-10,Vente,222000.0,17,RUE LAMARTINE,0330,97412,97402,Bras-Panon,974,0,Maison,89.0,4,55.694538,-21.001564
2020-1418807,2020-02-06,Vente,410650.0,9,IMP DES AVOCATS,0034,97419,97408,La Possession,974,0,Maison,161.0,5,55.338304,-20.939304
2020-1418808,2020-02-05,Vente,211292.0,9999,CHE LOUIS DES JARDINS,0919,97411,97415,Saint-Paul,974,1,Appartement,74.0,3,55.331533,-20.978055
2020-1418809,2020-02-05,Vente,35000.0,15,RUE DES JACINTHES,0634,97490,97411,Saint-Denis,974,1,Appartement,19.0,1,55.484795,-20.910343
2020-1418810,2020-01-30,Vente,47500.0,215,BD JEAN  JAURES,0692,97490,97411,Saint-Denis,974,1,Appartement,22.0,1,55.478972,-20.898884
2020-1418811,2020-02-06,Vente,229000.0,63,CHE LOUIS DES JARDINS,0919,97411,97415,Saint-Paul,974,0,Maison,62.0,3,55.331863,-20.978447
2020-1418812,2020-02-05,Vente,176000.0,2,IMP STEVE BIKO,1117,97420,97407,Le Port,974,0,Maison,62.0,3,55.30854,-20.937818
2020-1418813,2020-02-05,Vente,108000.0,19,AV MAHATMA GANDHI,0696,97441,97420,Sainte-Suzanne,974,1,Appartement,66.0,3,55.633329,-20.926069
2020-1418816,2020-01-31,Vente,140000.0,109,CHE DE BOIS ROUGE,0197,97490,97411,Saint-Denis,974,0,Maison,20.0,1,55.489604,-20.925883
2020-1418817,2020-02-18,Vente,51000.0,215,BD JEAN  JAURES,0692,97490,97411,Saint-Denis,974,1,Appartement,22.0,1,55.478972,-20.898884
2020-1418818,2020-02-14,Vente,80000.0,17,RTE LA RIVIERE DES PLUIES,1187,97490,97411,Saint-Denis,974,1,Appartement,42.0,2,55.501065,-20.900533
2020-1418819,2020-02-28,Vente,125000.0,3,CHE HAUTBOIS,0603,97417,97411,Saint-Denis,974,1,Appartement,61.0,3,55.424643,-20.888637
2020-1418820,2020-02-28,Vente,48000.0,66,BD SAINT FRANCOIS,1261,97400,97411,Saint-Denis,974,1,Appartement,23.0,1,55.461449,-20.899575
2020-1418821,2020-02-14,Vente,67000.0,118,CHE DE BOIS ROUGE,0197,97490,97411,Saint-Denis,974,1,Appartement,36.0,2,55.486633,-20.923917
2020-1418822,2020-01-30,Vente,39000.0,14,RUE DU BEARN,0157,97490,97411,Saint-Denis,974,1,Appartement,21.0,1,55.489445,-20.903177
2020-1418824,2020-02-20,Vente,128000.0,139,RUE DU GAL DE GAULLE,0570,97400,97411,Saint-Denis,974,1,Appartement,51.0,3,55.460228,-20.884714
2020-1418826,2020-02-11,Vente,90500.0,118,CHE DE BOIS ROUGE,0197,97490,97411,Saint-Denis,974,1,Appartement,59.0,3,55.488994,-20.924369
2020-1418830,2020-02-28,Vente,48000.0,15,RUE DES JACINTHES,0634,97490,97411,Saint-Denis,974,1,Appartement,31.0,1,55.484795,-20.910343
2020-1418831,2020-02-19,Vente,59000.0,56,AV EUDOXIE NONGE,0516,97490,97411,Saint-Denis,974,1,Appartement,36.0,2,55.495226,-20.899
2020-1418832,2020-02-15,Vente,248000.0,25,ALL DES GRENATS,0595,97400,97411,Saint-Denis,974,1,Appartement,68.0,4,55.444671,-20.89751
2020-1418833,2020-02-27,Vente,380000.0,25,LOT LE GOLF,A223,97417,97411,Saint-Denis,974,0,Maison,100.0,6,55.422741,-20.877538
2020-1418834,2020-02-19,Vente,66000.0,139,RUE DU GAL DE GAULLE,0570,97400,97411,Saint-Denis,974,1,Appartement,19.0,1,55.460228,-20.884714
2020-1418835,2020-02-27,Vente,93000.0,72,AV EUDOXIE NONGE,0516,97490,97411,Saint-Denis,974,1,Appartement,57.0,2,55.494623,-20.899706
2020-1418837,2020-02-20,Vente,343770.0,8,IMP TAKAMAKA,0544,97419,97408,La Possession,974,0,Maison,100.0,4,55.343856,-20.955437
2020-1418838,2020-02-20,Vente,170000.0,5,LOT MAGNOLIAS,A213,97470,97410,Saint-Benoît,974,0,Maison,75.0,4,55.692426,-21.012274
2020-1418840,2020-02-14,Vente,185000.0,34,CHE DU CAP   (STE ANNE),0250,97437,97410,Saint-Benoît,974,0,Maison,113.0,5,55.734603,-21.069719
2020-1418842,2020-02-20,Vente,48500.0,132,RUE DU GAL DE GAULLE,0570,97400,97411,Saint-Denis,974,1,Appartement,21.0,1,55.460213,-20.885161
2020-1418843,2020-02-19,Vente,71500.0,18,ALL DES CORINDONS,0366,97400,97411,Saint-Denis,974,1,Appartement,37.0,2,55.444988,-20.902814
2020-1418844,2020-02-20,Vente,380000.0,6,RUE DU LIEUTENANT VERGOZ,1484,97434,97415,Saint-Paul,974,0,Maison,94.0,4,55.244821,-21.100407
2020-1418845,2020-02-26,Vente,447300.0,64,RTE DU TROU D EAU,1453,97434,97415,Saint-Paul,974,0,Maison,60.0,3,55.241497,-21.099229
2020-1418845,2020-02-26,Vente,447300.0,64,RTE DU TROU D EAU,1453,97434,97415,Saint-Paul,974,0,Maison,119.0,4,55.241497,-21.099229
2020-1418846,2020-01-29,Vente,48000.0,6,RUE PHILIBERT,1110,97400,97411,Saint-Denis,974,1,Appartement,15.0,1,55.447167,-20.886363
2020-1418848,2020-02-14,Vente,85500.0,26,RUE DES BANCOULIERS,0148,97400,97411,Saint-Denis,974,1,Appartement,50.0,2,55.466795,-20.897816
2020-1418851,2020-02-24,Vente,1.0,6,RUE DES CYPRES,0144,97431,97406,La Plaine-des-Palmistes,974,0,Maison,80.0,2,55.631506,-21.139427
2020-1418852,2020-02-21,Vente,38000.0,23,RUE DES JACINTHES,0634,97490,97411,Saint-Denis,974,1,Appartement,29.0,2,55.483971,-20.910698
2020-1418853,2020-02-13,Vente,350000.0,181,CHE PENTE SASSY,1500,97440,97409,Saint-André,974,0,Maison,128.0,6,55.659523,-20.964811
2020-1418854,2020-02-13,Vente,458000.0,22,RUE DES EMERAUDES,0174,97419,97408,La Possession,974,0,Maison,120.0,4,55.328042,-20.96716
2020-1418855,2020-02-24,Vente,22257.56,2,RUE DES CYPRES,0144,97431,97406,La Plaine-des-Palmistes,974,0,Maison,60.0,5,55.631764,-21.139651
2020-1418856,2020-02-06,Vente,150000.0,416,LES ORANGERS    (STE ANNE),B510,97437,97410,Saint-Benoît,974,0,Maison,73.0,4,55.749088,-21.110875
2020-1418856,2020-02-06,Vente,150000.0,416,LES ORANGERS    (STE ANNE),B510,97437,97410,Saint-Benoît,974,0,Maison,73.0,4,55.749088,-21.110875
2020-1418858,2020-02-20,Vente,64000.0,118,CHE DE BOIS ROUGE,0197,97490,97411,Saint-Denis,974,1,Appartement,38.0,2,55.486633,-20.923917
2020-1418859,2020-02-21,Vente,70000.0,230,CHE DU CENTRE,0430,97440,97409,Saint-André,974,1,Appartement,60.0,3,55.64828,-20.941634
2020-1418861,2020-02-19,Vente,127050.0,2,RUE JACQUOT,0780,97460,97415,Saint-Paul,974,1,Appartement,50.0,2,55.283796,-20.982218
2020-1418862,2020-02-18,Vente,49005.0,23,RUE DES CITRONNIERS,0338,97435,97415,Saint-Paul,974,0,Maison,56.0,4,55.273837,-21.036953
2020-1418863,2020-02-18,Vente,230000.0,39,CHE PAVE,1070,97460,97415,Saint-Paul,974,0,Maison,64.0,4,55.321587,-21.001226
2020-1418864,2020-02-07,Vente,109000.0,8,RUE RAPHAEL BARQUISSEAU,1176,97490,97411,Saint-Denis,974,1,Appartement,52.0,3,55.478136,-20.897614
2020-1418865,2020-02-18,Vente,189000.0,2,RUE LAMARTINE,0295,97420,97407,Le Port,974,0,Maison,65.0,5,55.28489,-20.943156
2020-1418866,2020-02-26,Vente,342000.0,10,L HERMITAGE LONGUET,B428,97422,97415,Saint-Paul,974,0,Maison,154.0,5,55.268797,-21.074281
2020-1418867,2020-02-18,Vente,205000.0,113,RUE DE LA BAIE,0100,97460,97415,Saint-Paul,974,0,Maison,51.0,3,55.263649,-21.013206
2020-1418868,2020-02-28,Vente,367000.0,40,CHE DE LA VIGIE,1463,97417,97411,Saint-Denis,974,0,Maison,127.0,6,55.427656,-20.884574
2020-1418869,2020-02-21,Vente,98800.0,15,RUE ALEXANDRE DUMAS,0002,97419,97408,La Possession,974,0,Maison,100.0,4,55.347837,-20.954809
2020-1418869,2020-02-21,Vente,98800.0,15,RUE ALEXANDRE DUMAS,0002,97419,97408,La Possession,974,0,Maison,120.0,6,55.347837,-20.954809
2020-1418870,2020-02-21,Vente,75000.0,6,RUE RAYMOND MONDON,0328,97419,97408,La Possession,974,1,Appartement,33.0,2,55.339284,-20.924919
2020-1418872,2020-02-21,Vente,88000.0,2,IMP DU BOIS DE ROSE,0209,97490,97411,Saint-Denis,974,1,Appartement,20.0,2,55.481074,-20.899424
2020-1418873,2020-02-21,Vente,133000.0,43,RUE MGR DE BEAUMONT,0920,97400,97411,Saint-Denis,974,1,Appartement,66.0,3,55.456143,-20.882796
2020-1418874,2020-02-11,Vente,89000.0,57,CHE COMMINS,0359,97417,97411,Saint-Denis,974,1,Appartement,44.0,2,55.407749,-20.890099
2020-1418875,2020-03-05,Vente,255000.0,3,CHE CLEOPHAS MAILLOT,0129,97419,97408,La Possession,974,0,Maison,90.0,4,55.354903,-20.931292
2020-1418875,2020-03-05,Vente,255000.0,3,CHE CLEOPHAS MAILLOT,0129,97419,97408,La Possession,974,0,Maison,90.0,4,55.354903,-20.931292
2020-1418877,2020-02-06,Vente en l'état futur d'achèvement,194016.0,38,RLE MAGNAN,0802,97490,97411,Saint-Denis,974,1,Appartement,42.0,2,55.467726,-20.887409
2020-1418878,2020-02-24,Vente,215000.0,9,RUE DES MOUETTES,1022,97434,97415,Saint-Paul,974,1,Appartement,27.0,2,55.234278,-21.092661
2020-1418879,2020-02-06,Vente,250000.0,54,BD SAINT FRANCOIS,1261,97400,97411,Saint-Denis,974,0,Local industriel. commercial ou assimilé,126.0,0,55.460857,-20.898436
2020-1418881,2020-02-10,Vente,200000.0,63,RUE DE L EST,0510,97400,97411,Saint-Denis,974,1,Appartement,82.0,3,55.455947,-20.879203
2020-1418883,2020-02-10,Vente,88000.0,22,RUE DES PANIERS,1055,97400,97411,Saint-Denis,974,1,Appartement,42.0,2,55.45922,-20.899212
2020-1418884,2020-02-21,Vente,525490.0,12,IMP JAVEGNY,0760,97422,97415,Saint-Paul,974,0,Maison,142.0,6,55.27063,-21.08377
2020-1418885,2020-02-25,Vente,448500.0,17,IMP YLANG YLANG,1658,97460,97415,Saint-Paul,974,0,Maison,124.0,5,55.304739,-20.97429
2020-1418886,2020-02-18,Vente,160000.0,17,RUE JOSEPH HUBERT,0280,97412,97402,Bras-Panon,974,0,Maison,97.0,5,55.646188,-20.981055
2020-1418887,2020-02-19,Vente,90900.0,83,RUE TESSAN,1391,97490,97411,Saint-Denis,974,1,Appartement,53.0,2,55.47836,-20.896764
2020-1418889,2020-02-21,Vente,222000.0,71,ALL DES SAPHIRS,1338,97400,97411,Saint-Denis,974,1,Appartement,109.0,3,55.447121,-20.893998
2020-1418890,2020-02-24,Vente,142000.0,26,RUE DE L ABATTOIR,0010,97400,97411,Saint-Denis,974,1,Appartement,66.0,3,55.443835,-20.878704
2020-1418891,2020-02-20,Vente,81400.0,105,RUE DE LA REPUBLIQUE,1180,97400,97411,Saint-Denis,974,1,Appartement,43.0,2,55.447404,-20.882569
2020-1418893,2020-02-20,Vente,158745.0,13,RUE OMEGA,1854,97460,97415,Saint-Paul,974,1,Appartement,57.0,2,55.28509,-20.983718
2020-1418894,2020-02-12,Vente,81534.53,149,CHE ROBERT,0391,97438,97418,Sainte-Marie,974,0,Maison,60.0,3,55.53883,-20.944056
2020-1418895,2020-02-15,Vente,88400.0,26,RUE DE L ABATTOIR,0010,97400,97411,Saint-Denis,974,1,Appartement,43.0,2,55.443835,-20.878704
2020-1418898,2020-03-05,Vente,183000.0,8,RUE DES DODOS,0464,97434,97415,Saint-Paul,974,1,Appartement,52.0,2,55.237526,-21.093284
2020-1418901,2020-03-03,Vente,96000.0,63,AV DES MARTINS,0992,97460,97415,Saint-Paul,974,1,Appartement,51.0,2,55.266499,-21.026462
2020-1418902,2020-02-20,Vente,55000.0,75,RUE DE LA CLINIQUE,0341,97490,97411,Saint-Denis,974,1,Appartement,24.0,1,55.478297,-20.899658
2020-1418903,2020-02-21,Vente,1100000.0,69,RUE JULIETTE DODU,0700,97400,97411,Saint-Denis,974,1,Local industriel. commercial ou assimilé,80.0,0,55.451645,-20.879202
2020-1418903,2020-02-21,Vente,1100000.0,73,RUE JULIETTE DODU,0700,97400,97411,Saint-Denis,974,1,Local industriel. commercial ou assimilé,90.0,0,55.451645,-20.879202
2020-1418903,2020-02-21,Vente,1100000.0,73,RUE JULIETTE DODU,0700,97400,97411,Saint-Denis,974,2,Local industriel. commercial ou assimilé,60.0,0,55.451645,-20.879202
2020-1418903,2020-02-21,Vente,1100000.0,75,RUE JULIETTE DODU,0700,97400,97411,Saint-Denis,974,1,Local industriel. commercial ou assimilé,79.0,0,55.451645,-20.879202
2020-1418903,2020-02-21,Vente,1100000.0,71,RUE JULIETTE DODU,0700,97400,97411,Saint-Denis,974,1,Local industriel. commercial ou assimilé,140.0,0,55.451645,-20.879202
2020-1418903,2020-02-21,Vente,1100000.0,71,RUE JULIETTE DODU,0700,97400,97411,Saint-Denis,974,1,Local industriel. commercial ou assimilé,64.0,0,55.451645,-20.879202
2020-1418903,2020-02-21,Vente,1100000.0,73,RUE JULIETTE DODU,0700,97400,97411,Saint-Denis,974,1,Appartement,60.0,3,55.451645,-20.879202
2020-1418904,2020-02-20,Vente,600000.0,1,RUE DE L AMIRAL LACAZE,0080,97400,97411,Saint-Denis,974,0,Local industriel. commercial ou assimilé,400.0,0,55.447979,-20.874324
2020-1418905,2020-02-24,Vente,50000.0,1265,CHE BALANCE,0110,97440,97409,Saint-André,974,0,Maison,68.0,4,55.675445,-20.96659
2020-1418906,2020-02-21,Echange,280000.0,153,RUE JULES AUBER,0680,97400,97411,Saint-Denis,974,1,Appartement,86.0,4,55.454559,-20.883
2020-1418906,2020-02-21,Echange,280000.0,153,RUE JULES AUBER,0680,97400,97411,Saint-Denis,974,1,Appartement,19.0,2,55.454559,-20.883
2020-1418907,2020-02-21,Echange,400000.0,92,RUE SAINTE MARIE,1320,97400,97411,Saint-Denis,974,1,Local industriel. commercial ou assimilé,118.0,0,55.454559,-20.883
2020-1418907,2020-02-21,Echange,400000.0,153,RUE JULES AUBER,0680,97400,97411,Saint-Denis,974,1,Appartement,15.0,1,55.454559,-20.883
2020-1418907,2020-02-21,Echange,400000.0,92,RUE SAINTE MARIE,1320,97400,97411,Saint-Denis,974,1,Local industriel. commercial ou assimilé,17.0,0,55.454559,-20.883
2020-1418908,2020-02-27,Vente,192000.0,22,CHE DE LA CONFIANCE   BRETA,0444,97490,97411,Saint-Denis,974,0,Maison,80.0,4,55.49102,-20.942075
2020-1418912,2020-02-28,Vente,51000.0,134,RUE DE CAMBUSTON,0390,97440,97409,Saint-André,974,1,Appartement,47.0,2,55.642868,-20.932604
2020-1418913,2020-02-26,Vente,140000.0,154,RUE JULES AUBER,0680,97400,97411,Saint-Denis,974,1,Appartement,48.0,2,55.45459,-20.886284
2020-1418915,2020-02-13,Vente,50000.0,31,RTE N  2 BOURBIER LES BAS,0471,97470,97410,Saint-Benoît,974,0,Maison,31.0,2,55.704099,-21.022768
2020-1418916,2020-02-07,Vente,397500.0,96,CHE DUFOURG LES HAUTS,0442,97490,97411,Saint-Denis,974,0,Maison,84.0,4,55.501701,-20.918986
2020-1418917,2020-02-12,Vente,62000.0,18,RUE SAINTE ANNE,1310,97400,97411,Saint-Denis,974,1,Appartement,24.0,1,55.45165,-20.882042
2020-1418918,2020-02-25,Vente,110000.0,12,RUE RAYMOND MONDON,0328,97419,97408,La Possession,974,1,Appartement,58.0,3,55.339675,-20.925089
2020-1418920,2020-02-26,Vente,187000.0,12,RUE OMEGA,1854,97460,97415,Saint-Paul,974,1,Appartement,66.0,3,55.283674,-20.983793
2020-1418922,2020-02-20,Vente,127900.0,41,RUE DU 20 DECEMBRE 1848,0392,97419,97408,La Possession,974,1,Appartement,55.0,3,55.340023,-20.926239
2020-1418923,2020-02-25,Vente,474500.0,16,RUE EUGENE DAYOT (ST GILLES),0570,97434,97415,Saint-Paul,974,0,Maison,99.0,5,55.221405,-21.045742
2020-1418924,2020-02-28,Vente,135000.0,2,RUE DES AMARANTES,0052,97490,97411,Saint-Denis,974,1,Appartement,72.0,4,55.474547,-20.893509
2020-1418925,2020-02-25,Vente,55000.0,13,RUE D AJACCIO,0016,97420,97407,Le Port,974,0,Maison,53.0,3,55.295176,-20.945807
2020-1418926,2020-02-28,Vente,1875000.0,107,RUE JULES AUBER,0680,97400,97411,Saint-Denis,974,0,Local industriel. commercial ou assimilé,552.0,0,55.452961,-20.878527
2020-1418926,2020-02-28,Vente,1875000.0,107,RUE JULES AUBER,0680,97400,97411,Saint-Denis,974,0,Appartement,107.0,4,55.452961,-20.878527
2020-1418926,2020-02-28,Vente,1875000.0,107,RUE JULES AUBER,0680,97400,97411,Saint-Denis,974,0,Local industriel. commercial ou assimilé,107.0,0,55.452961,-20.878527
2020-1418927,2020-02-28,Vente,148000.0,50,LOT JAMROSATS,A243,97417,97411,Saint-Denis,974,0,Maison,91.0,5,55.411809,-20.886563
2020-1418929,2020-02-25,Vente,128000.0,1341,AV DU BEAU PAYS,0468,97438,97418,Sainte-Marie,974,1,Appartement,27.0,1,55.527225,-20.915416
2020-1418933,2020-02-21,Vente,81000.0,26,RUE DES BANCOULIERS,0148,97400,97411,Saint-Denis,974,1,Appartement,50.0,2,55.466795,-20.897816
2020-1418934,2020-02-20,Vente,95000.0,234,CHE DU MAIDO,0940,97423,97415,Saint-Paul,974,0,Maison,25.0,2,55.323753,-21.04173
2020-1418935,2020-02-19,Vente,223500.0,25,RUE OMEGA,1854,97460,97415,Saint-Paul,974,1,Appartement,72.0,3,55.285557,-20.983955
2020-1418936,2020-02-28,Vente,35000.0,56,RUE EMILE GRIMAUD,0486,97490,97411,Saint-Denis,974,1,Appartement,19.0,1,55.483189,-20.891142
2020-1418937,2020-02-28,Vente,142000.0,38,RUE EVARISTE DE PARNY,0190,97419,97408,La Possession,974,1,Appartement,51.0,3,55.33801,-20.926279
2020-1418939,2020-02-21,Vente,130000.0,8,RUE DES DODOS,0464,97434,97415,Saint-Paul,974,1,Appartement,32.0,1,55.237526,-21.093284
2020-1418940,2020-02-25,Vente,45000.0,81,RUE LEBLOND,0767,97400,97411,Saint-Denis,974,1,Maison,53.0,2,55.449737,-20.890358
2020-1418941,2020-02-20,Vente,195000.0,285,RTE DE BOIS DE NEFLES,0211,97490,97411,Saint-Denis,974,1,Maison,77.0,4,55.475306,-20.916394
2020-1418942,2020-02-21,Vente,189000.0,9,RUE DES CANNELIERS,0084,97412,97402,Bras-Panon,974,0,Maison,80.0,4,55.681649,-20.997957
2020-1418943,2020-02-21,Vente,278500.0,13,RUE DE LA DISTILLERIE,0158,97419,97408,La Possession,974,0,Maison,80.0,4,55.338289,-20.95644
2020-1418944,2020-02-24,Vente,180000.0,128,ALL DES TOPAZES,1397,97400,97411,Saint-Denis,974,1,Appartement,60.0,3,55.443324,-20.898746
2020-1418946,2020-02-25,Vente,510500.0,70,ALL DES MUFLIERS,0984,97417,97411,Saint-Denis,974,0,Maison,148.0,4,55.413771,-20.890066
2020-1418947,2020-03-10,Vente,308000.0,5567,CR N 15,0323,97438,97418,Sainte-Marie,974,0,Maison,101.0,6,55.525925,-20.927547
2020-1418948,2020-02-28,Vente,70000.0,8,LOT PIGNOLET DE FRESNES,A224,97470,97410,Saint-Benoît,974,1,Maison,63.0,3,55.712324,-21.04848
2020-1418949,2020-03-11,Vente,100000.0,25,BD DE LA PROVIDENCE,1160,97400,97411,Saint-Denis,974,1,Appartement,64.0,3,55.456121,-20.892859
2020-1418950,2020-03-11,Vente,169000.0,650,ROC SUD,1683,97440,97409,Saint-André,974,1,Maison,97.0,4,55.653811,-20.972045
2020-1418952,2020-02-28,Vente,420000.0,19,RUE MAHE,0189,97438,97418,Sainte-Marie,974,0,Maison,200.0,5,55.533929,-20.897294
2020-1418953,2020-02-28,Vente,19845.0,62,CHE DES BADAMIERS - LA MTAGNE,0131,97417,97411,Saint-Denis,974,0,Maison,51.0,4,55.411879,-20.886267
2020-1418954,2020-02-19,Vente,363000.0,4,RUE DES SEYCHELLES,1384,97434,97415,Saint-Paul,974,1,Appartement,67.0,3,55.22287,-21.075427
2020-1418955,2020-02-18,Vente,56500.0,118,CHE DE BOIS ROUGE,0197,97490,97411,Saint-Denis,974,1,Appartement,37.0,2,55.486633,-20.923917
2020-1418956,2020-02-20,Vente,142000.0,8,RUE RAPHAEL BARQUISSEAU,1176,97490,97411,Saint-Denis,974,1,Appartement,79.0,4,55.478136,-20.897614
2020-1418957,2020-02-13,Vente,56430.0,49,RTE DE BOIS DE NEFLES,0211,97490,97411,Saint-Denis,974,1,Appartement,40.0,2,55.477606,-20.894906
2020-1418959,2020-02-14,Vente,200000.0,1,IMP DU BOIS DE CANNELLE,0187,97490,97411,Saint-Denis,974,0,Maison,54.0,4,55.482468,-20.890664
2020-1418959,2020-02-14,Vente,200000.0,3,IMP DU BOIS DE CANNELLE,0187,97490,97411,Saint-Denis,974,0,Maison,46.0,2,55.482643,-20.890698
2020-1418961,2020-02-20,Vente,63000.0,2,AV JOSEPH BEDIER,0666,97490,97411,Saint-Denis,974,1,Appartement,68.0,4,55.486887,-20.892563
2020-1418962,2020-02-18,Vente,146000.0,2,IMP CITRONNELLE,0445,97438,97418,Sainte-Marie,974,0,Maison,60.0,4,55.517089,-20.947064
2020-1418962,2020-02-18,Vente,146000.0,2,IMP CITRONNELLE,0445,97438,97418,Sainte-Marie,974,0,Maison,60.0,4,55.517089,-20.947064
2020-1418965,2020-02-21,Vente,138000.0,34,CHE DES MANGUIERS     LA MTAGN,0819,97417,97411,Saint-Denis,974,1,Appartement,61.0,3,55.424068,-20.887407
2020-1418966,2020-02-14,Vente,270000.0,111,RTE DE SAINT FRANCOIS,1316,97400,97411,Saint-Denis,974,0,Maison,66.0,4,55.46038,-20.91549
2020-1418966,2020-02-14,Vente,270000.0,111,RTE DE SAINT FRANCOIS,1316,97400,97411,Saint-Denis,974,0,Maison,88.0,2,55.46038,-20.91549
2020-1418966,2020-02-14,Vente,270000.0,111,RTE DE SAINT FRANCOIS,1316,97400,97411,Saint-Denis,974,0,Maison,58.0,3,55.46038,-20.91549
2020-1418966,2020-02-14,Vente,270000.0,111,RTE DE SAINT FRANCOIS,1316,97400,97411,Saint-Denis,974,0,Maison,58.0,3,55.46038,-20.91549
2020-1418966,2020-02-14,Vente,270000.0,111,RTE DE SAINT FRANCOIS,1316,97400,97411,Saint-Denis,974,0,Local industriel. commercial ou assimilé,98.0,0,55.46038,-20.91549
2020-1418967,2020-02-20,Vente,180000.0,92,CHE DE LA PISCINE,1115,97411,97415,Saint-Paul,974,0,Maison,52.0,3,55.331646,-21.001558
2020-1418968,2020-02-14,Vente,53000.0,11,CHE DU BOIS DE NATTE,0192,97490,97411,Saint-Denis,974,1,Appartement,29.0,1,55.473689,-20.914749
2020-1418969,2020-02-27,Vente,110000.0,38,RUE NOTRE DAME DE LA SOURCE,1019,97400,97411,Saint-Denis,974,2,Appartement,57.0,3,55.447237,-20.890858
2020-1418970,2020-02-19,Vente,400000.0,6,RUE DES MALDIVES,0947,97434,97415,Saint-Paul,974,0,Maison,123.0,5,55.226519,-21.075025
2020-1418971,2020-02-28,Vente,270000.0,5,IMP KUMQUATS,1740,97435,97415,Saint-Paul,974,0,Maison,80.0,4,55.297506,-21.065753
2020-1418972,2020-02-13,Vente,112000.0,3,CHE DE LA CAVERNE,0289,97434,97415,Saint-Paul,974,1,Appartement,36.0,2,55.230418,-21.051269
2020-1418973,2020-02-25,Vente,129000.0,18,CHE CAMP DES EVIS,0330,97441,97420,Sainte-Suzanne,974,0,Maison,50.0,3,55.63218,-20.940728
2020-1418973,2020-02-25,Vente,129000.0,18,CHE CAMP DES EVIS,0330,97441,97420,Sainte-Suzanne,974,0,Maison,64.0,4,55.63218,-20.940728
2020-1418973,2020-02-25,Vente,129000.0,18,CHE CAMP DES EVIS,0330,97441,97420,Sainte-Suzanne,974,0,Maison,57.0,2,55.63218,-20.940728
2020-1418973,2020-02-25,Vente,129000.0,18,CHE CAMP DES EVIS,0330,97441,97420,Sainte-Suzanne,974,0,Maison,33.0,2,55.63218,-20.940728
2020-1418973,2020-02-25,Vente,129000.0,18,CHE CAMP DES EVIS,0330,97441,97420,Sainte-Suzanne,974,0,Maison,52.0,3,55.63218,-20.940728
2020-1418973,2020-02-25,Vente,129000.0,18,CHE CAMP DES EVIS,0330,97441,97420,Sainte-Suzanne,974,0,Maison,58.0,3,55.63218,-20.940728
2020-1418973,2020-02-25,Vente,129000.0,18,CHE CAMP DES EVIS,0330,97441,97420,Sainte-Suzanne,974,0,Maison,48.0,3,55.63218,-20.940728
2020-1418973,2020-02-25,Vente,129000.0,18,CHE CAMP DES EVIS,0330,97441,97420,Sainte-Suzanne,974,0,Maison,51.0,3,55.63218,-20.940728
2020-1418973,2020-02-25,Vente,129000.0,18,CHE CAMP DES EVIS,0330,97441,97420,Sainte-Suzanne,974,0,Maison,60.0,3,55.63218,-20.940728
2020-1418976,2020-03-02,Vente,131830.0,3,ALL CLAUDE BUFFIER,0122,97420,97407,Le Port,974,0,Maison,75.0,6,55.307781,-20.936351
2020-1418977,2020-02-28,Vente,1823854.0,7,CHE DES POINSETTIAS,1121,97417,97411,Saint-Denis,974,1,Appartement,58.0,3,55.416816,-20.899902
2020-1418977,2020-02-28,Vente,1823854.0,7,CHE DES POINSETTIAS,1121,97417,97411,Saint-Denis,974,1,Appartement,68.0,4,55.416816,-20.899902
2020-1418977,2020-02-28,Vente,1823854.0,7,CHE DES POINSETTIAS,1121,97417,97411,Saint-Denis,974,1,Appartement,58.0,3,55.416816,-20.899902
2020-1418977,2020-02-28,Vente,1823854.0,7,CHE DES POINSETTIAS,1121,97417,97411,Saint-Denis,974,1,Appartement,70.0,4,55.416816,-20.899902
2020-1418977,2020-02-28,Vente,1823854.0,7,CHE DES POINSETTIAS,1121,97417,97411,Saint-Denis,974,1,Appartement,70.0,4,55.416816,-20.899902
2020-1418977,2020-02-28,Vente,1823854.0,7,CHE DES POINSETTIAS,1121,97417,97411,Saint-Denis,974,1,Appartement,58.0,3,55.416816,-20.899902
2020-1418977,2020-02-28,Vente,1823854.0,7,CHE DES POINSETTIAS,1121,97417,97411,Saint-Denis,974,1,Appartement,79.0,5,55.416816,-20.899902
2020-1418977,2020-02-28,Vente,1823854.0,7,CHE DES POINSETTIAS,1121,97417,97411,Saint-Denis,974,1,Appartement,78.0,5,55.416816,-20.899902
2020-1418977,2020-02-28,Vente,1823854.0,7,CHE DES POINSETTIAS,1121,97417,97411,Saint-Denis,974,1,Appartement,58.0,3,55.416816,-20.899902
2020-1418977,2020-02-28,Vente,1823854.0,7,CHE DES POINSETTIAS,1121,97417,97411,Saint-Denis,974,1,Appartement,58.0,3,55.416816,-20.899902
2020-1418977,2020-02-28,Vente,1823854.0,7,CHE DES POINSETTIAS,1121,97417,97411,Saint-Denis,974,1,Appartement,70.0,4,55.416816,-20.899902
2020-1418977,2020-02-28,Vente,1823854.0,7,CHE DES POINSETTIAS,1121,97417,97411,Saint-Denis,974,1,Appartement,70.0,4,55.416816,-20.899902
2020-1418977,2020-02-28,Vente,1823854.0,7,CHE DES POINSETTIAS,1121,97417,97411,Saint-Denis,974,1,Appartement,58.0,3,55.416816,-20.899902
2020-1418977,2020-02-28,Vente,1823854.0,7,CHE DES POINSETTIAS,1121,97417,97411,Saint-Denis,974,1,Appartement,79.0,5,55.416816,-20.899902
2020-1418977,2020-02-28,Vente,1823854.0,7,CHE DES POINSETTIAS,1121,97417,97411,Saint-Denis,974,1,Appartement,78.0,5,55.416816,-20.899902
2020-1418978,2020-03-13,Vente,380000.0,49,CHE DU BOIS DE NATTE,0192,97490,97411,Saint-Denis,974,1,Appartement,126.0,4,55.471075,-20.914826
2020-1418979,2020-02-24,Vente,1600000.0,32,BD DU CHAUDRON,0316,97490,97411,Saint-Denis,974,0,Local industriel. commercial ou assimilé,595.0,0,55.491813,-20.893346
2020-1418979,2020-02-24,Vente,1600000.0,32,BD DU CHAUDRON,0316,97490,97411,Saint-Denis,974,0,Local industriel. commercial ou assimilé,595.0,0,55.491813,-20.893346
2020-1418980,2020-02-21,Vente,195000.0,156,ALL DES FOULARDS,0794,97440,97409,Saint-André,974,0,Maison,80.0,4,55.66261,-20.956162
2020-1418980,2020-02-21,Vente,195000.0,156,ALL DES FOULARDS,0794,97440,97409,Saint-André,974,0,Maison,80.0,3,55.66261,-20.956162
2020-1418981,2020-02-24,Vente,65800.0,14,RUE JUAN DE NOVA,0515,97419,97408,La Possession,974,1,Appartement,42.0,2,55.331551,-20.961685
2020-1418983,2020-02-19,Vente,220000.0,13,RUE DES DEUX CANONS,0421,97490,97411,Saint-Denis,974,0,Maison,76.0,4,55.474481,-20.886598
2020-1418984,2020-02-17,Vente,325500.0,12,ALL DES SAINTPAULIAS,1317,97490,97411,Saint-Denis,974,0,Maison,109.0,4,55.472277,-20.923038
2020-1418987,2020-02-24,Vente,60669.0,127,LOT LES LILAS,A130,97440,97409,Saint-André,974,0,Maison,46.0,3,55.647056,-20.959627
2020-1418988,2020-02-19,Vente,170000.0,44,ALL DES CASSIS,0418,97438,97418,Sainte-Marie,974,0,Maison,50.0,2,55.536016,-20.920651
2020-1418989,2020-02-21,Vente,62000.0,74,RUE DESBASSYNS,0248,97438,97418,Sainte-Marie,974,0,Maison,77.0,4,55.513572,-20.917627
2020-1418989,2020-02-21,Vente,62000.0,74,RUE DESBASSYNS,0248,97438,97418,Sainte-Marie,974,0,Maison,77.0,3,55.513572,-20.917627
2020-1418990,2020-03-04,Vente,137000.0,12,RUE OMEGA,1854,97460,97415,Saint-Paul,974,1,Appartement,50.0,2,55.283674,-20.983793
2020-1418992,2020-02-24,Vente,150000.0,693,RUE DE LA REPUBLIQUE,0430,97431,97406,La Plaine-des-Palmistes,974,0,Maison,80.0,3,55.60953,-21.155332
2020-1418994,2020-02-21,Vente,110800.0,54,CHE SAINT-ALME,0358,97419,97408,La Possession,974,0,Maison,60.0,2,55.328433,-20.965328
2020-1418997,2020-03-16,Vente,161000.0,20,CHE DES VANDAS,1434,97417,97411,Saint-Denis,974,1,Appartement,88.0,3,55.420564,-20.889381
2020-1418998,2020-03-16,Vente,46000.0,66,BD SAINT FRANCOIS,1261,97400,97411,Saint-Denis,974,1,Appartement,25.0,1,55.461449,-20.899575
2020-1418999,2020-03-11,Vente,227000.0,26,RUE DE L ABATTOIR,0010,97400,97411,Saint-Denis,974,1,Appartement,82.0,3,55.443835,-20.878704
2020-1419001,2020-03-11,Vente,85000.0,57,CHE COMMINS,0359,97417,97411,Saint-Denis,974,1,Appartement,41.0,2,55.407749,-20.890099
2020-1419002,2020-03-12,Vente,390000.0,3,RUE DES SEYCHELLES,1384,97434,97415,Saint-Paul,974,1,Appartement,59.0,3,55.223377,-21.074579
2020-1419003,2020-03-04,Vente,1356250.0,7,RUE ANDRE LARDY,0177,97438,97418,Sainte-Marie,974,15,Local industriel. commercial ou assimilé,145.0,0,55.534274,-20.894521
2020-1419003,2020-03-04,Vente,1356250.0,7,RUE ANDRE LARDY,0177,97438,97418,Sainte-Marie,974,16,Local industriel. commercial ou assimilé,216.0,0,55.534274,-20.894521
2020-1419003,2020-03-04,Vente,1356250.0,7,RUE ANDRE LARDY,0177,97438,97418,Sainte-Marie,974,16,Local industriel. commercial ou assimilé,265.0,0,55.534274,-20.894521
2020-1419003,2020-03-04,Vente,1356250.0,7,RUE ANDRE LARDY,0177,97438,97418,Sainte-Marie,974,16,Local industriel. commercial ou assimilé,430.0,0,55.534274,-20.894521
2020-1419003,2020-03-04,Vente,1356250.0,7,RUE ANDRE LARDY,0177,97438,97418,Sainte-Marie,974,15,Local industriel. commercial ou assimilé,306.0,0,55.534274,-20.894521
2020-1419003,2020-03-04,Vente,1356250.0,7,RUE ANDRE LARDY,0177,97438,97418,Sainte-Marie,974,15,Local industriel. commercial ou assimilé,46.0,0,55.534274,-20.894521
2020-1419003,2020-03-04,Vente,1356250.0,7,RUE ANDRE LARDY,0177,97438,97418,Sainte-Marie,974,15,Local industriel. commercial ou assimilé,360.0,0,55.534274,-20.894521
2020-1419003,2020-03-04,Vente,1356250.0,7,RUE ANDRE LARDY,0177,97438,97418,Sainte-Marie,974,15,Local industriel. commercial ou assimilé,194.0,0,55.534274,-20.894521
2020-1419003,2020-03-04,Vente,1356250.0,7,RUE ANDRE LARDY,0177,97438,97418,Sainte-Marie,974,15,Local industriel. commercial ou assimilé,47.0,0,55.534274,-20.894521
2020-1419003,2020-03-04,Vente,1356250.0,7,RUE ANDRE LARDY,0177,97438,97418,Sainte-Marie,974,15,Local industriel. commercial ou assimilé,562.0,0,55.534274,-20.894521
2020-1419003,2020-03-04,Vente,1356250.0,7,RUE ANDRE LARDY,0177,97438,97418,Sainte-Marie,974,15,Local industriel. commercial ou assimilé,75.0,0,55.534274,-20.894521
2020-1419003,2020-03-04,Vente,1356250.0,7,RUE ANDRE LARDY,0177,97438,97418,Sainte-Marie,974,15,Local industriel. commercial ou assimilé,39.0,0,55.534274,-20.894521
2020-1419003,2020-03-04,Vente,1356250.0,7,RUE ANDRE LARDY,0177,97438,97418,Sainte-Marie,974,15,Local industriel. commercial ou assimilé,65.0,0,55.534274,-20.894521
2020-1419004,2020-02-19,Vente,200000.0,16,RUE DU FOUR A CHAUX,0550,97400,97411,Saint-Denis,974,1,Appartement,94.0,5,55.449635,-20.874182
2020-1419005,2020-02-26,Vente,52000.0,72,AV EUDOXIE NONGE,0516,97490,97411,Saint-Denis,974,1,Appartement,31.0,1,55.494623,-20.899706
2020-1419006,2020-02-25,Vente,275000.0,2,RUE JACQUES AUBERT,1828,97435,97415,Saint-Paul,974,1,Appartement,74.0,4,55.260186,-21.047069
2020-1419007,2020-03-20,Vente,45500.0,5,RUE DU MAINE,0806,97490,97411,Saint-Denis,974,1,Appartement,26.0,1,55.491286,-20.903247
2020-1419008,2020-03-09,Vente,500000.0,8,RUE DES NAUTILES,1029,97434,97415,Saint-Paul,974,0,Maison,133.0,6,55.249321,-21.105537
2020-1419009,2020-03-10,Vente,312000.0,21,CHE GIRAUD,0211,97412,97402,Bras-Panon,974,0,Maison,139.0,5,55.680952,-20.997896
2020-1419010,2020-03-11,Vente,58000.0,9000,CHE CREOLE      (ST BENOIT),0090,97470,97410,Saint-Benoît,974,1,Appartement,61.0,2,55.702097,-21.032667
2020-1419011,2020-03-19,Vente,68000.0,3142,CHE LAGOURGUE,1000,97440,97409,Saint-André,974,1,Appartement,40.0,2,55.673381,-20.939856
2020-1419013,2020-02-28,Vente,270000.0,149,CHE HOARAU      (BDN),0737,97411,97415,Saint-Paul,974,0,Maison,75.0,4,55.332527,-20.998463
2020-1419014,2020-02-21,Vente,362540.0,5,RUE DE LA VOIE LACTEE,0394,97419,97408,La Possession,974,0,Maison,90.0,4,55.334094,-20.940547
2020-1419016,2020-02-25,Vente,130000.0,9,RUE OMEGA,1854,97460,97415,Saint-Paul,974,1,Appartement,56.0,3,55.284205,-20.983935
2020-1419017,2020-02-27,Vente,44000.0,14,RUE DU BEARN,0157,97490,97411,Saint-Denis,974,1,Appartement,29.0,1,55.489445,-20.903177
2020-1419018,2020-02-28,Vente,290000.0,117,AV DE LA GRANDE OURSE,1746,97434,97415,Saint-Paul,974,1,Appartement,74.0,4,55.227581,-21.063099
2020-1419019,2020-02-28,Vente,62000.0,3,RUE DU LIMOUSIN,0772,97490,97411,Saint-Denis,974,1,Appartement,32.0,1,55.486389,-20.908692
2020-1419021,2020-02-27,Vente,52000.0,60,CHE DU PITON TRESOR,1115,97417,97411,Saint-Denis,974,1,Appartement,35.0,1,55.430845,-20.89621
2020-1419022,2020-02-25,Vente,280000.0,4,IMP FLORIANT EMMANUEL,0594,97411,97415,Saint-Paul,974,0,Maison,85.0,5,55.325283,-20.994866
2020-1419023,2020-02-15,Vente,390000.0,137,CHE ZEPHIR,1657,97411,97415,Saint-Paul,974,0,Maison,139.0,5,55.322873,-20.994264
2020-1419024,2020-03-13,Vente,160000.0,59,CHE DES PECHERS,1094,97490,97411,Saint-Denis,974,1,Appartement,70.0,3,55.477467,-20.912049
2020-1419025,2020-02-28,Vente,278000.0,144,CHE FINETTE,0535,97490,97411,Saint-Denis,974,1,Maison,97.0,4,55.472167,-20.907233
2020-1419026,2020-02-28,Vente,189000.0,212,RUE DES ARGONAUTES,0045,97434,97415,Saint-Paul,974,1,Appartement,44.0,2,55.245174,-21.09722
2020-1419027,2020-03-13,Vente,80000.0,9,RUE DE LORRAINE,0780,97400,97411,Saint-Denis,974,1,Appartement,42.0,2,55.462046,-20.885486
2020-1419028,2020-03-16,Vente,156100.0,125,CHE DE BOIS ROUGE,0197,97490,97411,Saint-Denis,974,1,Maison,67.0,3,55.487758,-20.926562
2020-1419029,2020-02-26,Vente,140000.0,33,RUE MEDARD,0200,97438,97418,Sainte-Marie,974,0,Maison,87.0,4,55.51649,-20.920153
2020-1419031,2020-02-25,Vente,609000.0,10,RUE DES BENITIERS,0158,97434,97415,Saint-Paul,974,0,Maison,123.0,4,55.251375,-21.104813
2020-1419032,2020-03-02,Vente,151000.0,26,RUE DES LANTERNES,0286,97431,97406,La Plaine-des-Palmistes,974,0,Maison,67.0,5,55.632298,-21.138889
2020-1419033,2020-02-28,Vente,139550.0,366,CHE COLOSSE,0520,97440,97409,Saint-André,974,1,Maison,85.0,4,55.671682,-20.937818
2020-1419038,2020-03-06,Vente,93000.0,2,RUE LEON DIERX,0758,97400,97411,Saint-Denis,974,1,Appartement,56.0,3,55.457224,-20.889232
2020-1419039,2020-02-28,Vente,460000.0,22,RUE LUC DONAT,0233,97419,97408,La Possession,974,0,Maison,130.0,4,55.332044,-20.95824
2020-1419040,2020-03-02,Vente,339000.0,5,IMP BUTTE BERNARD,0256,97460,97415,Saint-Paul,974,0,Maison,55.0,3,55.26438,-21.03093
2020-1419041,2020-03-02,Vente,108696.0,7,RUE DES SAPHIRS,1354,97460,97415,Saint-Paul,974,1,Appartement,50.0,2,55.264753,-21.025309
2020-1419043,2020-02-07,Vente,45000.0,4,RUE GASTON  DEFFERRE,0688,97490,97411,Saint-Denis,974,1,Appartement,21.0,2,55.481413,-20.900616
2020-1419044,2020-02-24,Vente,240290.2,71,RUE ISSOP RAVATE,1557,97400,97411,Saint-Denis,974,1,Appartement,82.0,3,55.455947,-20.879203
2020-1419045,2020-03-02,Vente,169660.0,10,RUE DES DODOS,0464,97434,97415,Saint-Paul,974,1,Appartement,49.0,2,55.238415,-21.093052
2020-1419046,2020-02-27,Vente,280000.0,13,CHE DES MANGUIERS     LA MTAGN,0819,97417,97411,Saint-Denis,974,0,Maison,80.0,4,55.420567,-20.888231
2020-1419047,2020-03-02,Vente,167200.0,165,CHE DES COMBAVAS,0370,97411,97415,Saint-Paul,974,1,Appartement,48.0,2,55.326496,-20.989901
2020-1419050,2020-02-28,Vente en l'état futur d'achèvement,413700.0,129,PL DU GENERAL DE GAULLE,0665,97460,97415,Saint-Paul,974,1,Appartement,75.0,3,55.227162,-21.051017
2020-1419051,2020-03-06,Vente,124000.0,134,RUE DE CAMBUSTON,0390,97440,97409,Saint-André,974,1,Appartement,89.0,4,55.642868,-20.932604
2020-1419052,2020-02-28,Vente,140000.0,4,RUE EMILE EVAN,0180,97431,97406,La Plaine-des-Palmistes,974,0,Maison,82.0,3,55.611119,-21.154823
2020-1419055,2020-02-24,Vente,630000.0,1,RUE DES LATANIERS,0221,97419,97408,La Possession,974,0,Local industriel. commercial ou assimilé,260.0,0,55.335409,-20.932821
2020-1419055,2020-02-24,Vente,630000.0,18,ALL DES FLUORINES,0451,97400,97411,Saint-Denis,974,0,Maison,55.0,3,55.440576,-20.905734
2020-1419055,2020-02-24,Vente,630000.0,78,RUE R GARROS      (BDN),1279,97411,97415,Saint-Paul,974,0,Maison,159.0,5,55.330374,-20.994498
2020-1419056,2020-02-24,Vente,219350.0,9999,RUE DES BIBASSIERS,0161,97435,97415,Saint-Paul,974,0,Maison,120.0,3,55.275105,-21.037959
2020-1419057,2020-03-05,Vente,310350.0,340,RUE YLANG YLANG,0452,97438,97418,Sainte-Marie,974,1,Appartement,95.0,4,55.525871,-20.917583
2020-1419058,2020-02-24,Vente,78000.0,18,AV DES MOUTARDIERS,1025,97460,97415,Saint-Paul,974,1,Maison,42.0,2,55.270402,-21.023284
2020-1419059,2020-02-26,Vente,49000.0,2,PL MASCARIN,0928,97420,97407,Le Port,974,1,Maison,26.0,1,55.295817,-20.948229
2020-1419060,2020-03-04,Vente,50000.0,1,ALL DU MIRADOR,0916,97490,97411,Saint-Denis,974,1,Appartement,21.0,2,55.487804,-20.908619
2020-1419061,2020-02-24,Vente,135000.0,276,RTE MAIDO,0942,97423,97415,Saint-Paul,974,0,Maison,81.0,4,55.32714,-21.0437
2020-1419062,2020-02-24,Vente,316000.0,65,RTE DE FATIMA,0614,97435,97415,Saint-Paul,974,0,Maison,75.0,4,55.283812,-21.05175
2020-1419063,2020-03-11,Vente,11730.0,15,RUE VIDOT,0230,97438,97418,Sainte-Marie,974,0,Maison,90.0,4,55.520366,-20.925995
2020-1419063,2020-03-11,Vente,11730.0,15,RUE VIDOT,0230,97438,97418,Sainte-Marie,974,0,Local industriel. commercial ou assimilé,43.0,0,55.520366,-20.925995
2020-1419065,2020-02-28,Vente,33478.58,32,ALL DES FILAOS        MTGAILLA,0684,97400,97411,Saint-Denis,974,0,Maison,75.0,5,55.465524,-20.907824
2020-1419067,2020-02-28,Vente,265000.0,1,RUE DES JADES,1845,97434,97415,Saint-Paul,974,1,Appartement,72.0,3,55.240868,-21.09145
2020-1419068,2020-02-28,Vente,355000.0,1,CHE L'EVEQUE,0590,97422,97415,Saint-Paul,974,1,Local industriel. commercial ou assimilé,133.0,0,55.272075,-21.083684
2020-1419069,2020-02-27,Vente,44600.0,15,SEN DU RUISSEAU,1229,97490,97411,Saint-Denis,974,1,Appartement,23.0,1,55.477813,-20.900928
2020-1419070,2020-02-28,Vente,108000.0,14,RUE DU CAMP MAGLOIRE,0070,97419,97408,La Possession,974,2,Local industriel. commercial ou assimilé,52.0,0,55.339168,-20.926389
2020-1419071,2020-02-24,Vente,118000.0,9,AV DES COCOTIERS,0335,97400,97411,Saint-Denis,974,1,Appartement,71.0,3,55.46216,-20.893416
2020-1419073,2020-03-04,Vente,698000.0,619,RUE DES ARGONAUTES,0045,97434,97415,Saint-Paul,974,0,Maison,98.0,5,55.246662,-21.098026
2020-1419074,2020-03-04,Vente,143000.0,4,RUE DES SEYCHELLES,1384,97434,97415,Saint-Paul,974,1,Appartement,31.0,1,55.22287,-21.075427
2020-1419075,2020-03-06,Vente,73364.0,27,IMP PENDULAS,1800,97411,97415,Saint-Paul,974,1,Appartement,36.0,2,55.322209,-20.978925
2020-1419076,2020-03-06,Vente,330000.0,46,RUE DE L ECURIE,0502,97422,97415,Saint-Paul,974,0,Maison,131.0,5,55.275973,-21.089277
2020-1419077,2020-03-05,Vente,100000.0,19,AV MAHATMA GANDHI,0696,97441,97420,Sainte-Suzanne,974,1,Appartement,55.0,3,55.633329,-20.926069
2020-1419078,2020-03-06,Vente,49900.0,4,ROC DE L OASIS,1194,97400,97411,Saint-Denis,974,1,Appartement,21.0,1,55.467189,-20.898318
2020-1419079,2020-03-05,Vente,708750.0,3,ALL DES CAILLES,0279,97434,97415,Saint-Paul,974,0,Maison,101.0,4,55.230089,-21.030033
2020-1419082,2020-03-03,Vente,350000.0,32,CHE DES CASQUES,0285,97434,97415,Saint-Paul,974,0,Maison,78.0,4,55.257733,-21.10692
2020-1419083,2020-03-04,Vente,475780.0,29,RUE DES NAUTILES,1029,97434,97415,Saint-Paul,974,1,Maison,99.0,5,55.249969,-21.10672
2020-1419084,2020-03-30,Vente,290000.0,47,RUE POTHIER,1200,97460,97415,Saint-Paul,974,0,Local industriel. commercial ou assimilé,90.0,0,55.279033,-21.004251
2020-1419086,2020-03-02,Vente,480000.0,18,RUE DU VINGT DECEMBRE 1848,1490,97460,97415,Saint-Paul,974,0,Maison,95.0,4,55.282659,-20.992379
2020-1419086,2020-03-02,Vente,480000.0,18,RUE DU VINGT DECEMBRE 1848,1490,97460,97415,Saint-Paul,974,0,Appartement,70.0,2,55.282659,-20.992379
2020-1419088,2020-02-27,Vente,160000.0,2,IMP JOSETTE,0284,97420,97407,Le Port,974,0,Maison,93.0,4,55.292416,-20.948087
2020-1419089,2020-03-02,Vente,350000.0,9999,RUE A LACAUSSADE,0085,97434,97415,Saint-Paul,974,1,Appartement,69.0,3,55.234542,-21.091156
2020-1419090,2020-02-24,Vente,110000.0,21,RUE MAURICE TOMI,0866,97490,97411,Saint-Denis,974,1,Appartement,43.0,2,55.501437,-20.90807
2020-1419091,2020-03-04,Vente,103740.0,16,ALL DES PRIMEVERES,1153,97490,97411,Saint-Denis,974,1,Appartement,24.0,1,55.487724,-20.910966
2020-1419091,2020-03-04,Vente,103740.0,16,ALL DES PRIMEVERES,1153,97490,97411,Saint-Denis,974,1,Appartement,21.0,1,55.487724,-20.910966
2020-1419091,2020-03-04,Vente,103740.0,16,ALL DES PRIMEVERES,1153,97490,97411,Saint-Denis,974,1,Appartement,21.0,1,55.487724,-20.910966
2020-1419092,2020-03-13,Vente,9710.68,31,RUE JULES FERRY,0285,97420,97407,Le Port,974,0,Maison,71.0,6,55.297531,-20.935228
2020-1419093,2020-03-17,Vente,42989.0,17,ALL BOTZARIS,0557,97420,97407,Le Port,974,1,Appartement,35.0,2,55.306834,-20.938692
2020-1419094,2020-02-24,Vente,650000.0,58,RUE A LACAUSSADE,0085,97434,97415,Saint-Paul,974,0,Maison,70.0,4,55.231337,-21.091083
2020-1419095,2020-03-09,Vente,158000.0,101,CHE LES CANOTS,0283,97460,97415,Saint-Paul,974,0,Maison,75.0,3,55.308506,-21.028372
2020-1419096,2020-03-05,Vente,57000.0,8,RUE MAHATMA GANDHI,0247,97419,97408,La Possession,974,1,Appartement,26.0,1,55.32271,-20.958588
2020-1419097,2020-03-09,Vente,251344.0,29,RUE OMEGA,1854,97460,97415,Saint-Paul,974,1,Appartement,90.0,4,55.285557,-20.983955
2020-1419098,2020-03-13,Vente,9500.0,5,RUE VINCENT SCOTTO,1185,97420,97407,Le Port,974,0,Maison,132.0,6,55.299135,-20.931897
2020-1419099,2020-03-09,Vente,43000.0,215,BD JEAN  JAURES,0692,97490,97411,Saint-Denis,974,1,Appartement,21.0,1,55.478972,-20.898884
2020-1419100,2020-03-10,Vente,220000.0,27,RUE OMEGA,1854,97460,97415,Saint-Paul,974,1,Appartement,108.0,4,55.285557,-20.983955
2020-1419102,2020-02-27,Vente,206130.0,6,CHE COMMUNE DES BEGUES,0037,97441,97420,Sainte-Suzanne,974,1,Appartement,43.0,2,55.640158,-20.933365
2020-1419102,2020-02-27,Vente,206130.0,6,CHE COMMUNE DES BEGUES,0037,97441,97420,Sainte-Suzanne,974,1,Appartement,60.0,3,55.640158,-20.933365
2020-1419103,2020-02-28,Vente en l'état futur d'achèvement,348000.0,86,ALL DES SPINELLES,1362,97400,97411,Saint-Denis,974,1,Appartement,85.0,4,55.445809,-20.899912
2020-1419104,2020-03-09,Vente,250933.0,5,CHE FINETTE,0535,97490,97411,Saint-Denis,974,1,Appartement,59.0,3,55.475357,-20.89984
2020-1419108,2020-03-06,Vente,55000.0,142,RUE DE CAMBUSTON,0390,97440,97409,Saint-André,974,1,Appartement,46.0,2,55.642868,-20.932604
2020-1419110,2020-03-03,Vente,230000.0,6,RUE PHILIBERT,1110,97400,97411,Saint-Denis,974,1,Appartement,75.0,4,55.447167,-20.886363
2020-1419111,2020-03-03,Vente,140000.0,74,ALL DES TOPAZES,1397,97400,97411,Saint-Denis,974,1,Appartement,48.0,2,55.443038,-20.896209
2020-1419112,2020-03-06,Vente,177000.0,44,RUE LOUISE MICHEL,0242,97419,97408,La Possession,974,1,Appartement,117.0,6,55.32183,-20.960617
2020-1419113,2020-03-04,Vente,115000.0,7,RUE OMEGA,1854,97460,97415,Saint-Paul,974,1,Appartement,51.0,2,55.284472,-20.98332
2020-1419116,2020-03-09,Vente,45000.0,8,RUE YVES MONTAND,0178,97438,97418,Sainte-Marie,974,1,Appartement,40.0,2,55.555574,-20.898453
2020-1419117,2020-03-06,Vente,31390.85,2,LOT LACAUSSADE,A125,97440,97409,Saint-André,974,0,Maison,68.0,7,55.655514,-20.958221
2020-1419118,2020-03-20,Vente,367500.0,8,RUE CHARLES NUNGESSER,0207,97438,97418,Sainte-Marie,974,0,Maison,98.0,5,55.522933,-20.905036
2020-1419119,2020-03-11,Vente,57000.0,29,RUE DE L'EUROPE,1492,97400,97411,Saint-Denis,974,1,Appartement,37.0,2,55.469563,-20.895567
2020-1419120,2020-02-26,Vente,240000.0,2,AV DE PORT LOUIS,0320,97419,97408,La Possession,974,0,Maison,85.0,4,55.34422,-20.925257
2020-1419121,2020-03-16,Vente,160000.0,48,RUE LOT TOMI BRAS FUSIL,0643,97470,97410,Saint-Benoît,974,0,Maison,105.0,5,55.715336,-21.049211
2020-1419123,2020-02-21,Vente,160000.0,1,IMP DES HYMENEES,0268,97438,97418,Sainte-Marie,974,1,Appartement,64.0,4,55.508985,-20.89919
2020-1419124,2020-03-02,Vente,9800.0,80,SEN LOULOU,0230,97439,97419,Sainte-Rose,974,0,Maison,80.0,4,55.782292,-21.130663
2020-1419124,2020-03-02,Vente,9800.0,80,SEN LOULOU,0230,97439,97419,Sainte-Rose,974,0,Maison,70.0,4,55.782292,-21.130663
2020-1419128,2020-03-31,Vente,205000.0,4,IMP DES BAIES ROSES,0033,97438,97418,Sainte-Marie,974,0,Maison,70.0,4,55.523348,-20.90418
2020-1419130,2020-03-10,Vente,240000.0,37,CHE MANES,0380,97470,97410,Saint-Benoît,974,0,Maison,106.0,4,55.696806,-21.034413
2020-1419131,2020-03-09,Vente,159000.0,10,CHE LA CAROLINE,0091,97412,97402,Bras-Panon,974,0,Maison,67.0,3,55.653062,-21.001437
2020-1419132,2020-03-06,Vente,349150.0,18,RUE MAURICE TOMI,0866,97490,97411,Saint-Denis,974,1,Appartement,109.0,4,55.499724,-20.907981
2020-1419133,2020-03-06,Vente,55000.0,328,RTE DE BOIS DE NEFLES,0211,97490,97411,Saint-Denis,974,1,Appartement,39.0,2,55.474021,-20.91036
2020-1419134,2020-03-11,Vente,99000.0,19,AV MAHATMA GANDHI,0696,97441,97420,Sainte-Suzanne,974,1,Appartement,66.0,3,55.633329,-20.926069
2020-1419135,2020-03-06,Vente,340000.0,116,ALL DES TOPAZES,1397,97400,97411,Saint-Denis,974,0,Appartement,51.0,2,55.444002,-20.900018
2020-1419135,2020-03-06,Vente,340000.0,116,ALL DES TOPAZES,1397,97400,97411,Saint-Denis,974,0,Maison,100.0,4,55.444002,-20.900018
2020-1419136,2020-02-28,Vente,110000.0,72,RUE ST JOSEPH OUVRIER,1282,97400,97411,Saint-Denis,974,1,Appartement,54.0,2,55.45595,-20.897725
2020-1419140,2020-03-18,Vente,228500.0,6,CHE DU BOEUF MORT,0049,97419,97408,La Possession,974,1,Appartement,61.0,4,55.333938,-20.936946
2020-1419141,2020-03-13,Vente,133000.0,7,RUE DES RAVENALS,0798,97470,97410,Saint-Benoît,974,0,Maison,71.0,3,55.692112,-21.080643
2020-1419142,2020-03-13,Vente,25000.0,1,RUE LAGOURGUE,1010,97440,97409,Saint-André,974,0,Maison,41.0,2,55.650488,-20.95767
2020-1419142,2020-03-13,Vente,25000.0,1,RUE LAGOURGUE,1010,97440,97409,Saint-André,974,0,Local industriel. commercial ou assimilé,36.0,0,55.650488,-20.95767
2020-1419142,2020-03-13,Vente,25000.0,1,RUE LAGOURGUE,1010,97440,97409,Saint-André,974,0,Maison,41.0,2,55.650488,-20.95767
2020-1419142,2020-03-13,Vente,25000.0,1,RUE LAGOURGUE,1010,97440,97409,Saint-André,974,0,Local industriel. commercial ou assimilé,36.0,0,55.650488,-20.95767
2020-1419146,2020-03-04,Vente,20000.0,60,ALL DES TULIPES,1413,97490,97411,Saint-Denis,974,1,Appartement,20.0,1,55.485262,-20.916654
2020-1419147,2020-03-05,Vente,539524.0,1,RTE DE BELLE VUE,0036,97438,97418,Sainte-Marie,974,0,Maison,150.0,6,55.54221,-20.936448
2020-1419148,2020-03-18,Vente,138000.0,6,CITE MOREAU      (STE ANNE),A023,97437,97410,Saint-Benoît,974,0,Local industriel. commercial ou assimilé,60.0,0,55.74155,-21.079344
2020-1419148,2020-03-18,Vente,138000.0,6,CITE MOREAU      (STE ANNE),A023,97437,97410,Saint-Benoît,974,0,Maison,129.0,4,55.74155,-21.079344
2020-1419149,2020-03-09,Vente en l'état futur d'achèvement,279000.0,25,RUE DU GEN DE GAULLE  (ST G),0659,97434,97415,Saint-Paul,974,1,Appartement,58.0,2,55.222546,-21.049214
2020-1419150,2020-03-17,Vente,650000.0,34,RUE DES STROMBOLES,1393,97434,97415,Saint-Paul,974,0,Maison,83.0,4,55.253771,-21.106557
2020-1419151,2020-03-25,Vente,399430.0,184,RUE JOSEPH HUBERT,1761,97435,97415,Saint-Paul,974,0,Maison,166.0,5,55.265688,-21.058482
2020-1419152,2020-03-04,Vente,22603.09,206,RTE EMILE DE LA GIRODAY,0021,97438,97418,Sainte-Marie,974,0,Maison,57.0,4,55.532433,-20.91507
2020-1419153,2020-03-06,Vente,110000.0,56,RUE EMILE GRIMAUD,0486,97490,97411,Saint-Denis,974,1,Appartement,77.0,4,55.483189,-20.891142
2020-1419155,2020-03-05,Vente,120000.0,200,RLE CLOVIS,0500,97440,97409,Saint-André,974,0,Maison,66.0,3,55.649664,-20.94507
2020-1419156,2020-03-23,Vente,420000.0,3,RUE ALBERT CAMUS,0001,97419,97408,La Possession,974,0,Maison,112.0,5,55.332519,-20.944718
2020-1419163,2020-02-28,Vente,80000.0,47,RUE DES PETUNIAS,0591,97470,97410,Saint-Benoît,974,0,Maison,116.0,5,55.711912,-21.053004
2020-1419164,2020-02-21,Vente,80000.0,19,RUE DES VACOAS,0673,97470,97410,Saint-Benoît,974,0,Maison,90.0,5,55.719681,-21.036433
2020-1419166,2020-02-29,Vente,8130.0,10,LOT ALBIUS,A003,97439,97419,Sainte-Rose,974,0,Maison,71.0,4,55.82522,-21.156061
2020-1419167,2020-03-18,Vente,148000.0,6,RUE RAYMOND MONDON,0328,97419,97408,La Possession,974,1,Appartement,41.0,2,55.339284,-20.924919
2020-1419168,2020-03-18,Vente,100000.0,67,RUE LECONTE DE LISLE,0230,97419,97408,La Possession,974,1,Appartement,54.0,2,55.335013,-20.931956
2020-1419169,2020-03-02,Vente,3030.0,12,CHE DE L'EGLISE,0037,97439,97419,Sainte-Rose,974,0,Maison,80.0,4,55.82588,-21.160727
2020-1419170,2020-03-16,Vente,85000.0,328,RTE DE BOIS DE NEFLES,0211,97490,97411,Saint-Denis,974,1,Appartement,39.0,2,55.474021,-20.91036
2020-1419171,2020-03-16,Vente,367990.0,18,RUE DENIS DIDEROT,0155,97419,97408,La Possession,974,0,Maison,106.0,4,55.348776,-20.959002
2020-1419172,2020-03-13,Vente,92000.0,1,CHE DU PLATEAU,1123,97490,97411,Saint-Denis,974,1,Appartement,60.0,3,55.50637,-20.918923
2020-1419173,2020-02-25,Vente,41986.0,11,RLE MOULIN A MAIS,0290,97438,97418,Sainte-Marie,974,1,Appartement,29.0,1,55.548057,-20.898703
2020-1419174,2020-02-27,Vente,195000.0,6,IMP DES CHRYSALIDES,0079,97441,97420,Sainte-Suzanne,974,1,Maison,112.0,4,55.637446,-20.939998
2020-1419175,2020-02-26,Vente,369738.0,63,CHE DES TAMARINS      LA MTAGN,1384,97417,97411,Saint-Denis,974,0,Maison,80.0,4,55.411021,-20.885559
2020-1419176,2020-02-27,Vente,178000.0,103,CHE BEGUE,0034,97438,97418,Sainte-Marie,974,0,Maison,60.0,3,55.53219,-20.942094
2020-1419178,2020-02-28,Vente,226000.0,14,BD LECONTE DE LISLE,0898,97434,97415,Saint-Paul,974,1,Appartement,36.0,2,55.226883,-21.082632
2020-1419180,2020-02-28,Vente,180000.0,36,ALL DES SAPHIRS,1338,97400,97411,Saint-Denis,974,1,Appartement,74.0,3,55.448148,-20.894035
2020-1419181,2020-03-03,Vente,73000.0,11,CHE DU CANAL URBAIN,0331,97441,97420,Sainte-Suzanne,974,1,Appartement,75.0,4,55.605494,-20.903918
2020-1419182,2020-02-28,Vente,86000.0,2,RUE DES FOUCHEROLLES,0545,97490,97411,Saint-Denis,974,1,Appartement,73.0,3,55.492201,-20.899512
2020-1419183,2020-02-28,Vente,374000.0,7,RUE CORNE DE CERF,1817,97460,97415,Saint-Paul,974,0,Maison,160.0,6,55.304417,-21.015733
2020-1419184,2020-03-03,Vente,160000.0,2,SEN DES BOUGAINVILLEES  ST FRA,0216,97400,97411,Saint-Denis,974,0,Maison,94.0,5,55.46203,-20.908399
2020-1419184,2020-03-03,Vente,160000.0,2,SEN DES BOUGAINVILLEES  ST FRA,0216,97400,97411,Saint-Denis,974,0,Maison,94.0,5,55.46203,-20.908399
2020-1419185,2020-03-03,Vente,250000.0,43,CHE DU BOEUF MORT,0049,97419,97408,La Possession,974,1,Maison,96.0,4,55.338181,-20.941846
2020-1419188,2020-03-04,Vente,46000.0,12,RUE GASTON  DEFFERRE,0688,97490,97411,Saint-Denis,974,1,Appartement,23.0,1,55.480519,-20.900216
2020-1419189,2020-03-03,Vente,77000.0,64,ALL DES TOPAZES,1397,97400,97411,Saint-Denis,974,2,Appartement,39.0,1,55.445825,-20.896139
2020-1419191,2020-03-06,Vente,130000.0,3,RUE VICTOR HUGO,0380,97419,97408,La Possession,974,4,Local industriel. commercial ou assimilé,86.0,0,55.336062,-20.930627
2020-1419192,2020-03-05,Vente,400000.0,48,VC ROYALE,0322,97460,97415,Saint-Paul,974,2,Local industriel. commercial ou assimilé,109.0,0,55.269813,-21.013589
2020-1419193,2020-03-10,Vente,149150.0,18,IMP MAURICE KRIEGEL VALRIMONT,0516,97419,97408,La Possession,974,1,Appartement,69.0,4,55.333306,-20.963167
2020-1419195,2020-03-04,Vente,80000.0,5,RUE THOMAS ROBERT,0495,97431,97406,La Plaine-des-Palmistes,974,0,Local industriel. commercial ou assimilé,50.0,0,55.637788,-21.125347
2020-1419195,2020-03-04,Vente,80000.0,5,RUE THOMAS ROBERT,0495,97431,97406,La Plaine-des-Palmistes,974,0,Maison,56.0,4,55.637788,-21.125347
2020-1419195,2020-03-04,Vente,80000.0,5,RUE THOMAS ROBERT,0495,97431,97406,La Plaine-des-Palmistes,974,0,Maison,56.0,4,55.637788,-21.125347
2020-1419195,2020-03-04,Vente,80000.0,5,RUE THOMAS ROBERT,0495,97431,97406,La Plaine-des-Palmistes,974,0,Local industriel. commercial ou assimilé,50.0,0,55.637788,-21.125347
2020-1419196,2020-03-03,Vente,155000.0,1,ALL DES GRAINES BEBE -SIDR CAM,0407,97400,97411,Saint-Denis,974,0,Maison,39.0,3,55.465612,-20.89324
2020-1419200,2020-03-06,Vente,610000.0,8,ALL DES SERPENTINES,1357,97400,97411,Saint-Denis,974,1,Appartement,98.0,5,55.441359,-20.894659
2020-1419201,2020-03-06,Vente,109000.0,7,ALL DES EMERAUDES,0485,97400,97411,Saint-Denis,974,2,Appartement,44.0,2,55.443565,-20.89369
2020-1419202,2020-03-06,Vente,105000.0,9,AV DES COCOTIERS,0335,97400,97411,Saint-Denis,974,1,Appartement,75.0,3,55.46216,-20.893416
2020-1419205,2020-03-04,Vente,100000.0,11,CHE FINETTE,0535,97490,97411,Saint-Denis,974,1,Appartement,45.0,2,55.475165,-20.900385
2020-1419206,2020-03-10,Vente,140000.0,11,ALL DES AIGRETTES,0025,97434,97415,Saint-Paul,974,1,Appartement,49.0,2,55.229898,-21.050823
2020-1419207,2020-03-10,Vente,380000.0,64,AV DE L USINE,1701,97434,97415,Saint-Paul,974,1,Appartement,115.0,5,55.238636,-21.08704
2020-1419209,2020-03-10,Vente,113000.0,1,CHE DE LA CAVERNE,0289,97434,97415,Saint-Paul,974,1,Appartement,35.0,1,55.230418,-21.051269
2020-1419211,2020-03-05,Vente,43750.0,215,BD JEAN  JAURES,0692,97490,97411,Saint-Denis,974,1,Appartement,23.0,1,55.478972,-20.898884
2020-1419213,2020-03-12,Vente,190300.0,2,RUE JACQUES AUBERT,1828,97435,97415,Saint-Paul,974,1,Appartement,45.0,2,55.260186,-21.047069
2020-1419214,2020-03-11,Vente,100000.0,1,RUE DES BECS ROSES,0052,97412,97402,Bras-Panon,974,1,Appartement,56.0,3,55.681074,-20.99667
2020-1419215,2020-03-11,Vente,236000.0,14,ALL DES TOURNESOLS,1425,97460,97415,Saint-Paul,974,0,Maison,88.0,4,55.306227,-21.026804
2020-1419216,2020-03-09,Vente,770000.0,8,RUE DES CORAUX,0404,97434,97415,Saint-Paul,974,0,Maison,93.0,4,55.242474,-21.09788
2020-1419217,2020-03-05,Vente,150000.0,33,RUE FRANCOIS DE MAHY,0552,97490,97411,Saint-Denis,974,0,Maison,81.0,5,55.485862,-20.894936
2020-1419218,2020-03-06,Vente,37000.0,14,RUE DU BEARN,0157,97490,97411,Saint-Denis,974,1,Appartement,23.0,1,55.489445,-20.903177
2020-1419219,2020-03-05,Vente,315000.0,19,RUE DE LA BAIE,0100,97460,97415,Saint-Paul,974,0,Maison,36.0,3,55.268277,-21.010033
2020-1419221,2020-03-10,Vente,196000.0,9,RUE OMEGA,1854,97460,97415,Saint-Paul,974,1,Appartement,66.0,4,55.284205,-20.983935
2020-1419222,2020-03-10,Vente,70000.0,328,RTE DE BOIS DE NEFLES,0211,97490,97411,Saint-Denis,974,1,Appartement,39.0,2,55.474021,-20.91036
2020-1419223,2020-04-07,Vente,90000.0,71,RUE TESSAN,1391,97490,97411,Saint-Denis,974,1,Appartement,60.0,3,55.47873,-20.896394
2020-1419224,2020-03-12,Vente,439860.0,11,CHE VIEUX TAMARIN,0508,97419,97408,La Possession,974,0,Maison,125.0,4,55.342628,-20.948595
2020-1419226,2020-03-09,Vente,76000.0,12,RUE ANTOINE ROUSSIN,0357,97438,97418,Sainte-Marie,974,1,Appartement,66.0,3,55.555033,-20.900532
2020-1419227,2020-03-12,Vente,160000.0,164,RUE MARIUS ET ARY LEBLOND,0990,97460,97415,Saint-Paul,974,1,Appartement,35.0,2,55.276853,-21.003998
2020-1419228,2020-03-31,Vente en l'état futur d'achèvement,199000.0,36,RUE DE LA HUPPE,2009,97411,97415,Saint-Paul,974,1,Appartement,41.0,2,55.319295,-20.983295
2020-1419229,2020-03-31,Vente,190000.0,29,RUE OMEGA,1854,97460,97415,Saint-Paul,974,1,Appartement,71.0,3,55.285557,-20.983955
2020-1419230,2020-03-26,Vente,48000.0,11,RLE MOULIN A MAIS,0290,97438,97418,Sainte-Marie,974,1,Appartement,47.0,2,55.548057,-20.898703
2020-1419232,2020-03-06,Vente,210000.0,25,RUE JEAN CHATEL,0650,97400,97411,Saint-Denis,974,2,Appartement,61.0,2,55.449432,-20.875246
2020-1419233,2020-03-31,Vente en l'état futur d'achèvement,260000.0,36,RUE DE LA HUPPE,2009,97411,97415,Saint-Paul,974,1,Appartement,62.0,3,55.319295,-20.983295
2020-1419234,2020-03-31,Vente,290000.0,21,CHE DE BOIS ROUGE,0197,97490,97411,Saint-Denis,974,0,Maison,71.0,5,55.492013,-20.921425
2020-1419236,2020-03-26,Vente,171000.0,16,RUE JEAN COCTEAU,0651,97490,97411,Saint-Denis,974,1,Appartement,62.0,3,55.467037,-20.885946
2020-1419237,2020-03-12,Vente,150000.0,44,RUE LOUISE MICHEL,0242,97419,97408,La Possession,974,1,Appartement,50.0,2,55.32183,-20.960617
2020-1419238,2020-03-09,Vente,79900.0,2,RUE DU CAMP MAGLOIRE,0070,97419,97408,La Possession,974,1,Appartement,45.0,2,55.338423,-20.925306
2020-1419241,2020-03-11,Vente,12579.88,21,RUE DES MOULES,0973,97434,97415,Saint-Paul,974,0,Maison,80.0,4,55.241247,-21.094604
2020-1419242,2020-03-03,Vente,55470.0,8,ALL DES TULIPES,1413,97490,97411,Saint-Denis,974,0,Maison,55.0,4,55.485451,-20.914567
2020-1419243,2020-03-12,Vente,141000.0,3,LOT LAUGIER,A077,97412,97402,Bras-Panon,974,0,Maison,65.0,3,55.69722,-21.001298
2020-1419244,2020-04-01,Vente,4511358.0,11,ALL DES TOPAZES,1397,97400,97411,Saint-Denis,974,0,Appartement,63.0,3,55.445899,-20.891073
2020-1419244,2020-04-01,Vente,4511358.0,11,ALL DES TOPAZES,1397,97400,97411,Saint-Denis,974,0,Appartement,76.0,4,55.445899,-20.891073
